%time,field.header.seq,field.header.stamp,field.header.frame_id,field.latitude,field.longitude,field.altitude,field.utm_east,field.utm_north,field.latitude_std,field.longitude_std,field.altitude_std,field.north_velocity,field.east_velocity,field.up_velocity,field.north_velocity_std,field.east_velocity_std,field.up_velocity_std,field.roll,field.pitch,field.yaw,field.x,field.y,field.z,field.w,field.roll_std,field.pitch_std,field.yaw_std,field.roll_rate,field.pitch_rate,field.yaw_rate,field.ax,field.ay,field.az,field.init_position,field.init_velocity,field.init_pitchroll,field.init_yaw,field.gps_status,field.gps_satellitenum,field.wheelspeed_status,field.temperature
1561680168555643726,82944,1561680168555482483,gps,38.97958,117.7862174,4.67299985886,568099.958371,4314804.48035,0.0160828772932,0.0160828772932,0.0327124334872,-0.0030517578125,0.0,0.006103515625,0.00744658242911,0.00744658242911,0.00744658242911,-0.230712890625,0.032958984375,-49.5043945312,-0.00170795095559,0.00110417426375,-0.41869317228,0.908125482072,0.0502874366939,0.0502874366939,0.45384478569,0.0274658203125,-0.155639648438,0.0457763671875,-0.01171875,0.006591796875,0.9990234375,1,1,1,1,50,31,1,46.0510253906
1561680168575682541,82945,1561680168575557337,gps,38.97958,117.7862174,4.67299985886,568099.958371,4314804.48035,0.0160828772932,0.0160828772932,0.0327124334872,-0.006103515625,-0.0030517578125,-0.0,0.00744658242911,0.00744658242911,0.00744658242911,-0.230712890625,0.032958984375,-49.5043945312,-0.00170795095559,0.00110417426375,-0.41869317228,0.908125482072,0.0502874366939,0.0502874366939,0.45384478569,0.29296875,-0.0274658203125,0.03662109375,-0.01611328125,0.0047607421875,0.998657226562,1,1,1,1,50,31,1,46.0510253906
1561680168596697647,82946,1561680168596499792,gps,38.97958,117.7862174,4.67299985886,568099.958371,4314804.48035,0.0160828772932,0.0160828772932,0.0327124334872,0.0030517578125,0.0,-0.006103515625,0.00744658242911,0.00744658242911,0.00744658242911,-0.2197265625,0.0439453125,-49.5043945312,-0.00158074368919,0.00115109795975,-0.418693095802,0.908125689402,0.0502874366939,0.0502874366939,0.45384478569,-0.054931640625,0.146484375,-0.03662109375,-0.0164794921875,0.0010986328125,1.00378417969,1,1,1,1,50,31,1,46.0510253906
1561680168615764626,82947,1561680168615626578,gps,38.97958,117.7862174,4.67299985886,568099.958371,4314804.48035,0.0160828772932,0.0160828772932,0.0327124334872,0.0,0.0,0.006103515625,0.00744658242911,0.00744658242911,0.00744658242911,-0.2197265625,0.0439453125,-49.5043945312,-0.00158074368919,0.00115109795975,-0.418693095802,0.908125689402,0.0502874366939,0.0502874366939,0.45384478569,-0.091552734375,-0.128173828125,0.0457763671875,-0.0084228515625,-0.0032958984375,1.00964355469,1,1,1,1,50,31,1,46.0510253906
1561680168635819493,82948,1561680168635665483,gps,38.97958,117.7862174,4.67299985886,568099.958371,4314804.48035,0.0160828772932,0.0160828772932,0.0327124334872,-0.0030517578125,0.0,-0.0,0.00744658242911,0.00744658242911,0.00744658242911,-0.2197265625,0.0439453125,-49.5043945312,-0.00158074368919,0.00115109795975,-0.418693095802,0.908125689402,0.0502874366939,0.0502874366939,0.45384478569,0.146484375,-0.054931640625,0.018310546875,-0.010986328125,0.0040283203125,0.997192382812,1,1,1,1,50,31,1,46.0510253906
1561680168656095581,82949,1561680168655928290,gps,38.97958,117.7862174,4.67199993134,568099.958371,4314804.48035,0.0160828772932,0.0160828772932,0.0327124334872,0.0,0.0,-0.0,0.00744658242911,0.00744658242911,0.00744658242911,-0.2197265625,0.0439453125,-49.5043945312,-0.00158074368919,0.00115109795975,-0.418693095802,0.908125689402,0.0502874366939,0.0502874366939,0.45384478569,-0.03662109375,0.0,0.0,-0.013916015625,0.0010986328125,1.00744628906,1,1,1,1,50,31,1,46.0510253906
1561680168676431171,82950,1561680168676233510,gps,38.97958,117.7862174,4.67199993134,568099.958371,4314804.48035,0.0160828772932,0.0160828772932,0.0327124334872,0.0,0.0,-0.006103515625,0.00744658242911,0.00744658242911,0.00744658242911,-0.2197265625,0.054931640625,-49.5043945312,-0.00154060185613,0.00123816335532,-0.418692911537,0.90812572881,0.0502874366939,0.0502874366939,0.45384478569,0.0,0.155639648438,0.0,-0.00732421875,0.009521484375,1.00415039062,1,1,1,1,50,31,1,46.0510253906
1561680168696804854,82951,1561680168696387612,gps,38.97958,117.7862174,4.67199993134,568099.958371,4314804.48035,0.0160828772932,0.0160828772932,0.0327124334872,0.0,0.0,-0.0030517578125,0.00744658242911,0.00744658242911,0.00744658242911,-0.2197265625,0.054931640625,-49.5043945312,-0.00154060185613,0.00123816335532,-0.418692911537,0.90812572881,0.0502874366939,0.0502874366939,0.45384478569,0.0274658203125,0.0823974609375,0.018310546875,-0.012451171875,0.006591796875,1.00012207031,1,1,1,1,50,31,1,46.0510253906
1561680168715649519,82952,1561680168715506211,gps,38.97958,117.7862174,4.67199993134,568099.958371,4314804.48035,0.0160828772932,0.0160828772932,0.0327124334872,0.0,-0.0030517578125,-0.006103515625,0.00744658242911,0.00744658242911,0.00744658242911,-0.208740234375,0.06591796875,-49.5043945312,-0.00141339453536,0.00128508707138,-0.418692848554,0.908125899552,0.0502874366939,0.0502874366939,0.45384478569,0.0640869140625,0.128173828125,0.018310546875,-0.02490234375,0.0113525390625,0.994262695312,1,1,1,1,50,31,1,46.0510253906
1561680168736682540,82953,1561680168736517677,gps,38.97958,117.7862174,4.67100000381,568099.958371,4314804.48035,0.0160828772932,0.0160828772932,0.0327124334872,0.0030517578125,0.0,-0.006103515625,0.00744658242911,0.00744658242911,0.00744658242911,-0.208740234375,0.06591796875,-49.5043945312,-0.00141339453536,0.00128508707138,-0.418692848554,0.908125899552,0.0502874366939,0.0502874366939,0.45384478569,-0.0823974609375,0.164794921875,-0.0457763671875,-0.021240234375,0.0029296875,0.982543945312,1,1,1,1,50,31,1,46.0510253906
1561680168755566531,82954,1561680168755445608,gps,38.97958,117.7862174,4.67100000381,568099.958371,4314804.48035,0.0160828772932,0.0160828772932,0.0327124334872,0.0,0.0,-0.0,0.00744658242911,0.00744658242911,0.00744658242911,-0.208740234375,0.06591796875,-49.5043945312,-0.00141339453536,0.00128508707138,-0.418692848554,0.908125899552,0.0502874366939,0.0502874366939,0.45384478569,0.03662109375,0.018310546875,-0.018310546875,0.0032958984375,0.003662109375,0.995361328125,1,1,1,1,50,31,1,46.0510253906
1561680168775716268,82955,1561680168775565760,gps,38.97958,117.7862174,4.67100000381,568099.958371,4314804.48035,0.0160828772932,0.0160828772932,0.0327124334872,0.0030517578125,0.0,-0.0,0.00744658242911,0.00744658242911,0.00744658242911,-0.208740234375,0.06591796875,-49.5043945312,-0.00141339453536,0.00128508707138,-0.418692848554,0.908125899552,0.0502874366939,0.0502874366939,0.45384478569,-0.03662109375,0.0,-0.0640869140625,0.008056640625,0.00439453125,1.00158691406,1,1,1,1,50,31,1,46.0510253906
1561680168796545920,82956,1561680168796330882,gps,38.97958,117.7862174,4.67100000381,568099.958371,4314804.48035,0.0160828772932,0.0160828772932,0.0327124334872,0.006103515625,0.006103515625,0.006103515625,0.00744658242911,0.00744658242911,0.00744658242911,-0.208740234375,0.076904296875,-49.5043945312,-0.00137325267235,0.00137215246139,-0.41869266494,0.908125918417,0.0502874366939,0.0502874366939,0.45384478569,-0.137329101562,-0.119018554688,-0.137329101562,0.0,-0.0084228515625,1.013671875,1,1,1,1,50,31,1,46.0510253906
1561680168815869873,82957,1561680168815736861,gps,38.97958,117.7862174,4.67100000381,568099.958371,4314804.48035,0.0160828772932,0.0160828772932,0.0327124334872,0.0,0.0,-0.006103515625,0.00744658242911,0.00744658242911,0.00744658242911,-0.208740234375,0.076904296875,-49.5043945312,-0.00137325267235,0.00137215246139,-0.41869266494,0.908125918417,0.0502874366939,0.0502874366939,0.45384478569,0.0,0.119018554688,-0.018310546875,-0.0164794921875,-0.0025634765625,1.013671875,1,1,1,1,50,31,1,46.0510253906
1561680168836007608,82958,1561680168835802507,gps,38.97958,117.7862174,4.67000007629,568099.958371,4314804.48035,0.0160828772932,0.0160828772932,0.0327124334872,0.0,0.0,-0.0,0.00744658242911,0.00744658242911,0.00744658242911,-0.208740234375,0.087890625,-49.5043945312,-0.00133311079672,0.0014592178388,-0.418692477477,0.908125928934,0.0502874366939,0.0502874366939,0.45384478569,-0.0091552734375,0.0,0.054931640625,-0.0087890625,0.00439453125,0.995361328125,1,1,1,1,50,31,1,45.7580566406
1561680168856215109,82959,1561680168856093094,gps,38.97958,117.7862174,4.67000007629,568099.958371,4314804.48035,0.0160828772932,0.0160828772932,0.0327124334872,0.006103515625,0.0,-0.006103515625,0.00744658242911,0.00744658242911,0.00744658242911,-0.208740234375,0.087890625,-49.5043945312,-0.00133311079672,0.0014592178388,-0.418692477477,0.908125928934,0.0502874366939,0.0502874366939,0.45384478569,-0.0732421875,0.146484375,-0.0732421875,-0.0087890625,0.00732421875,0.994262695312,1,1,1,1,50,31,1,45.7580566406
1561680168876578553,82960,1561680168876363817,gps,38.97958,117.7862174,4.67000007629,568099.958371,4314804.48035,0.0160828772932,0.0160828772932,0.0327124334872,0.0,-0.0030517578125,-0.006103515625,0.00744658242911,0.00744658242911,0.00744658242911,-0.208740234375,0.098876953125,-49.5043945312,-0.00129296890884,0.00154628320279,-0.418692286166,0.908125931105,0.0502874366939,0.0502874366939,0.45384478569,0.0457763671875,0.128173828125,0.0274658203125,-0.0003662109375,0.009521484375,1.00122070312,1,1,1,1,50,31,1,45.7580566406
1561680168896648276,82961,1561680168896433628,gps,38.97958,117.7862174,4.66900014877,568099.958371,4314804.48035,0.0160828772932,0.0160828772932,0.0327124334872,0.0,0.0,-0.0,0.00744658242911,0.00744658242911,0.00744658242911,-0.208740234375,0.10986328125,-49.5043945312,-0.00125282700907,0.00163334855256,-0.418692091006,0.908125924928,0.0502874366939,0.0502874366939,0.45384478569,0.091552734375,0.0274658203125,0.0,0.0,0.0047607421875,1.00158691406,1,1,1,1,50,31,1,45.7580566406
1561680168915486834,82962,1561680168915348810,gps,38.97958,117.7862174,4.66900014877,568099.958371,4314804.48035,0.0160828772932,0.0160828772932,0.0327124334872,0.006103515625,0.0030517578125,-0.0030517578125,0.00744658242911,0.00744658242911,0.00744658242911,-0.19775390625,0.120849609375,-49.5043945312,-0.00112561961113,0.00168027229708,-0.418692055016,0.908126022495,0.0502874366939,0.0502874366939,0.45384478569,0.0274658203125,0.091552734375,-0.155639648438,-0.00439453125,0.0040283203125,0.99169921875,1,1,1,1,50,31,1,45.7580566406
1561680168936755317,82963,1561680168936603300,gps,38.97958,117.7862174,4.66800022125,568099.958371,4314804.48035,0.0160828772932,0.0160828772932,0.0327124334872,-0.0030517578125,-0.0030517578125,-0.0,0.00744658242911,0.00744658242911,0.00744658242911,-0.19775390625,0.1318359375,-49.5043945312,-0.00108547769107,0.00176733763508,-0.418691860506,0.908125995775,0.0502874366939,0.0502874366939,0.45384478569,0.0823974609375,0.018310546875,0.0732421875,0.0032958984375,0.000732421875,0.9931640625,1,1,1,1,50,31,1,45.7580566406
1561680168956074940,82964,1561680168955894820,gps,38.97958,117.7862174,4.66800022125,568099.958371,4314804.48035,0.0160828772932,0.0160828772932,0.0327124334872,0.0,0.0,-0.0,0.00744658242911,0.00744658242911,0.00744658242911,-0.19775390625,0.142822265625,-49.5043945312,-0.00104533576104,0.00185440295683,-0.418691662148,0.908125960707,0.0502874366939,0.0502874366939,0.45384478569,0.0732421875,-0.0091552734375,-0.0091552734375,0.013916015625,-0.0062255859375,1.01477050781,1,1,1,1,50,31,1,45.7580566406
1561680168976057454,82965,1561680168975823039,gps,38.97958,117.7862174,4.66699981689,568099.958371,4314804.48035,0.0160828772932,0.0160828772932,0.0327124334872,0.006103515625,0.0030517578125,0.0030517578125,0.00744658242911,0.00744658242911,0.00744658242911,-0.19775390625,0.142822265625,-49.5043945312,-0.00104533576104,0.00185440295683,-0.418691662148,0.908125960707,0.0502874366939,0.0502874366939,0.45384478569,-0.100708007812,-0.0640869140625,-0.128173828125,0.01611328125,0.0,1.01806640625,1,1,1,1,50,31,1,45.7580566406
1561680168996093988,82966,1561680168995913532,gps,38.97958,117.7862174,4.66699981689,568099.958371,4314804.48035,0.0160828772932,0.0160828772932,0.0327124334872,0.0,-0.0030517578125,-0.0030517578125,0.00744658242911,0.00744658242911,0.00744658242911,-0.208740234375,0.142822265625,-49.5043945312,-0.00113240124215,0.00189454450861,-0.418691482435,0.908125856313,0.0502874366939,0.0502874366939,0.45384478569,-0.0457763671875,0.10986328125,0.0457763671875,-0.0157470703125,0.01171875,0.9990234375,1,1,1,1,50,31,1,45.7580566406
1561680169015714083,82967,1561680169015548932,gps,38.97958,117.7862174,4.66699981689,568099.958371,4314804.48035,0.0160828772932,0.0160828772932,0.0327124334872,0.0,-0.0030517578125,-0.0091552734375,0.00744658242911,0.00744658242911,0.00744658242911,-0.19775390625,0.15380859375,-49.5043945312,-0.0010051938214,0.00194146826154,-0.418691459941,0.908125917293,0.0502874366939,0.0502874366939,0.45384478569,0.164794921875,0.210571289062,-0.054931640625,-0.0135498046875,0.0032958984375,0.991333007812,1,1,1,1,50,31,1,45.7580566406
1561680169035698784,82968,1561680169035523523,gps,38.97958,117.7862174,4.66599988937,568099.958371,4314804.48035,0.0160828772932,0.0160828772932,0.0327124334872,0.0030517578125,-0.0030517578125,-0.01220703125,0.00744658242911,0.00744658242911,0.00744658242911,-0.19775390625,0.164794921875,-49.5043945312,-0.000965051872526,0.0020285335484,-0.418691253886,0.908125865531,0.0502874366939,0.0502874366939,0.45384478569,0.0091552734375,0.2197265625,0.0,-0.003662109375,0.00146484375,0.9931640625,1,1,1,1,50,31,1,45.7580566406
1561680169055584575,82969,1561680169055443502,gps,38.97958,117.7862174,4.66599988937,568099.958371,4314804.48035,0.0160828772932,0.0160828772932,0.0327124334872,0.0030517578125,0.0,-0.0091552734375,0.00744658242911,0.00744658242911,0.00744658242911,-0.19775390625,0.17578125,-49.5043945312,-0.000924909914777,0.00211559881662,-0.418691043982,0.908125805421,0.0502874366939,0.0502874366939,0.45384478569,0.18310546875,0.18310546875,-0.10986328125,0.0054931640625,0.009521484375,0.975952148438,1,1,1,1,50,31,1,45.7580566406
1561680169075870457,82970,1561680169075712354,gps,38.97958,117.7862174,4.66499996185,568099.958371,4314804.48035,0.0160828772932,0.0160828772932,0.0327124334872,0.0,-0.0030517578125,-0.0,0.00744658242911,0.00744658242911,0.00744658242911,-0.19775390625,0.17578125,-49.5043945312,-0.000924909914777,0.00211559881662,-0.418691043982,0.908125805421,0.0502874366939,0.0502874366939,0.45384478569,0.302124023438,0.03662109375,-0.018310546875,0.0179443359375,0.0076904296875,1.00524902344,1,1,1,1,50,31,1,45.7580566406
1561680169096003354,82971,1561680169095716137,gps,38.97958,117.7862174,4.66499996185,568099.958371,4314804.48035,0.0160828772932,0.0160828772932,0.0327124334872,-0.0030517578125,-0.0030517578125,-0.0,0.00744658242911,0.00744658242911,0.00744658242911,-0.19775390625,0.186767578125,-49.5043945312,-0.000884767948527,0.00220266406539,-0.41869083023,0.908125736965,0.0502874366939,0.0502874366939,0.45384478569,0.0732421875,-0.018310546875,0.0640869140625,0.0146484375,0.00732421875,1.0166015625,1,1,1,1,50,31,1,45.7580566406
1561680169115932412,82972,1561680169115804698,gps,38.97958,117.7862174,4.66499996185,568099.958371,4314804.48035,0.0160828772932,0.0160828772932,0.0327124334872,-0.006103515625,0.0,0.0091552734375,0.00744658242911,0.00744658242911,0.00744658242911,-0.19775390625,0.186767578125,-49.5043945312,-0.000884767948527,0.00220266406539,-0.41869083023,0.908125736965,0.0502874366939,0.0502874366939,0.45384478569,0.0457763671875,-0.18310546875,0.119018554688,0.0069580078125,-0.0032958984375,1.00122070312,1,1,1,1,50,31,1,45.7580566406
1561680169135804274,82973,1561680169135678575,gps,38.97958,117.7862174,4.66499996185,568099.958371,4314804.48035,0.0160828772932,0.0160828772932,0.0327124334872,-0.0091552734375,-0.006103515625,0.0030517578125,0.00744658242911,0.00744658242911,0.00744658242911,-0.19775390625,0.186767578125,-49.5043945312,-0.000884767948527,0.00220266406539,-0.41869083023,0.908125736965,0.0502874366939,0.0502874366939,0.45384478569,0.0274658203125,-0.10986328125,0.210571289062,-0.0018310546875,0.005859375,0.970825195312,1,1,1,1,50,31,1,45.7580566406
1561680169156590718,82974,1561680169156387041,gps,38.97958,117.7862174,4.66499996185,568099.958371,4314804.48035,0.0160828772932,0.0160828772932,0.0327124334872,0.0,-0.006103515625,-0.006103515625,0.00744658242911,0.00744658242911,0.00744658242911,-0.19775390625,0.186767578125,-49.5043945312,-0.000884767948527,0.00220266406539,-0.41869083023,0.908125736965,0.0502874366939,0.0502874366939,0.45384478569,0.10986328125,0.146484375,0.0732421875,-0.005126953125,-0.0003662109375,0.993896484375,1,1,1,1,50,31,1,45.7580566406
1561680169176585243,82975,1561680169176378607,gps,38.97958,117.7862174,4.66499996185,568099.958371,4314804.48035,0.0160828772932,0.0160828772932,0.0327124334872,0.0091552734375,0.0030517578125,-0.006103515625,0.00744658242911,0.00744658242911,0.00744658242911,-0.19775390625,0.186767578125,-49.5043945312,-0.000884767948527,0.00220266406539,-0.41869083023,0.908125736965,0.0502874366939,0.0502874366939,0.45384478569,-0.25634765625,0.10986328125,-0.128173828125,0.0069580078125,-0.0047607421875,1.01330566406,1,1,1,1,50,31,1,45.7580566406
1561680169196460462,82976,1561680169196291737,gps,38.97958,117.7862174,4.66499996185,568099.958371,4314804.48035,0.0160828772932,0.0160828772932,0.0327124334872,-0.0030517578125,0.0,0.006103515625,0.0103579582646,0.0103579582646,0.0103579582646,-0.19775390625,0.186767578125,-49.5043945312,-0.000884767948527,0.00220266406539,-0.41869083023,0.908125736965,0.0502874366939,0.0502874366939,0.45384478569,0.0,-0.155639648438,0.0457763671875,-0.0010986328125,0.0029296875,1.001953125,1,1,1,1,50,31,1,45.7580566406
1561680169216196505,82977,1561680169216036616,gps,38.97958,117.7862174,4.66499996185,568099.958371,4314804.48035,0.0160828772932,0.0160828772932,0.0327124334872,0.0030517578125,0.0,-0.0,0.0103579582646,0.0103579582646,0.0103579582646,-0.19775390625,0.186767578125,-49.5043945312,-0.000884767948527,0.00220266406539,-0.41869083023,0.908125736965,0.0533970333636,0.0533970333636,0.45384478569,-0.128173828125,0.03662109375,-0.0457763671875,-0.0106201171875,0.0029296875,0.997192382812,1,1,1,1,50,31,1,45.7580566406
1561680169236512101,82978,1561680169236361408,gps,38.97958,117.7862174,4.66499996185,568099.958371,4314804.48035,0.0160828772932,0.0160828772932,0.0327124334872,0.0,0.0,-0.0,0.0103579582646,0.0103579582646,0.0103579582646,-0.19775390625,0.186767578125,-49.5043945312,-0.000884767948527,0.00220266406539,-0.41869083023,0.908125736965,0.0533970333636,0.0533970333636,0.45384478569,-0.100708007812,0.0,0.0457763671875,-0.0025634765625,-0.0010986328125,0.99169921875,1,1,1,1,50,31,1,45.7580566406
1561680169256397860,82979,1561680169256253088,gps,38.97958,117.7862174,4.66499996185,568099.958371,4314804.48035,0.0160828772932,0.0160828772932,0.0327124334872,0.0,0.0030517578125,0.0091552734375,0.0103579582646,0.0103579582646,0.0103579582646,-0.19775390625,0.186767578125,-49.5043945312,-0.000884767948527,0.00220266406539,-0.41869083023,0.908125736965,0.0533970333636,0.0533970333636,0.45384478569,-0.119018554688,-0.2197265625,0.0274658203125,0.0087890625,0.0029296875,1.00158691406,1,1,1,1,50,31,1,45.7580566406
1561680169276345582,82980,1561680169276208168,gps,38.97958,117.7862174,4.66499996185,568099.958371,4314804.48035,0.0160828772932,0.0160828772932,0.0327124334872,0.0,0.0,-0.0,0.0103579582646,0.0103579582646,0.0103579582646,-0.19775390625,0.17578125,-49.5043945312,-0.000924909914777,0.00211559881662,-0.418691043982,0.908125805421,0.0533970333636,0.0533970333636,0.45384478569,0.0274658203125,-0.018310546875,0.018310546875,-0.000732421875,0.005126953125,0.9931640625,1,1,1,1,50,31,1,45.7580566406
1561680169296027927,82981,1561680169295899441,gps,38.97958,117.7862174,4.66499996185,568099.958371,4314804.48035,0.0160828772932,0.0160828772932,0.0327124334872,0.0,-0.0030517578125,-0.0030517578125,0.0103579582646,0.0103579582646,0.0103579582646,-0.19775390625,0.186767578125,-49.5043945312,-0.000884767948527,0.00220266406539,-0.41869083023,0.908125736965,0.0533970333636,0.0533970333636,0.45384478569,0.0,0.100708007812,0.0823974609375,-0.006591796875,0.00439453125,1.00048828125,1,1,1,1,50,31,1,45.7580566406
1561680169316017224,82982,1561680169315876263,gps,38.97958,117.7862174,4.66499996185,568099.958371,4314804.48035,0.0160828772932,0.0160828772932,0.0327124334872,0.0,0.0,-0.0,0.0103579582646,0.0103579582646,0.0103579582646,-0.208740234375,0.186767578125,-49.5043945312,-0.00097183340892,0.00224280553581,-0.418690617128,0.908125647965,0.0533970333636,0.0533970333636,0.45384478569,-0.173950195312,0.018310546875,0.0274658203125,-0.0128173828125,0.0040283203125,1.01184082031,1,1,1,1,50,31,1,45.7580566406
1561680169336533966,82983,1561680169336420787,gps,38.97958,117.7862174,4.66499996185,568099.958371,4314804.48035,0.0160828772932,0.0160828772932,0.0327124334872,0.0030517578125,0.006103515625,0.006103515625,0.0103579582646,0.0103579582646,0.0103579582646,-0.208740234375,0.186767578125,-49.5043945312,-0.00097183340892,0.00224280553581,-0.418690617128,0.908125647965,0.0533970333636,0.0533970333636,0.45384478569,0.018310546875,-0.146484375,-0.164794921875,-0.000732421875,0.006591796875,0.98876953125,1,1,1,1,50,31,1,45.7580566406
1561680169355669961,82984,1561680169355519328,gps,38.97958,117.7862174,4.66499996185,568099.958371,4314804.48035,0.0160828772932,0.0160828772932,0.0327124334872,0.006103515625,0.006103515625,0.0030517578125,0.0103579582646,0.0103579582646,0.0103579582646,-0.208740234375,0.186767578125,-49.5153808594,-0.000971618378167,0.00224289869886,-0.41877768066,0.908085502331,0.0533970333636,0.0533970333636,0.45384478569,-0.0457763671875,-0.054931640625,-0.155639648438,-0.000732421875,0.01025390625,1.00671386719,1,1,1,1,50,31,1,45.7580566406
1561680169375592735,82985,1561680169375388185,gps,38.97958,117.7862174,4.66499996185,568099.958371,4314804.48035,0.0160828772932,0.0160828772932,0.0327124334872,0.0030517578125,0.0,-0.0030517578125,0.0103579582646,0.0103579582646,0.0103579582646,-0.208740234375,0.19775390625,-49.5153808594,-0.000931468049517,0.00232996005716,-0.418777454705,0.908085429398,0.0533970333636,0.0533970333636,0.45384478569,-0.0732421875,0.0823974609375,-0.0091552734375,0.0018310546875,0.002197265625,1.01440429688,1,1,1,1,50,31,1,45.7580566406
1561680169396412574,82986,1561680169396272220,gps,38.97958,117.7862174,4.66499996185,568099.958371,4314804.48035,0.0160828772932,0.0160828772932,0.0327124334872,0.0,0.0030517578125,0.006103515625,0.0103579582646,0.0103579582646,0.0103579582646,-0.208740234375,0.19775390625,-49.5153808594,-0.000931468049517,0.00232996005716,-0.418777454705,0.908085429398,0.0533970333636,0.0533970333636,0.45384478569,-0.0457763671875,-0.10986328125,-0.054931640625,0.0003662109375,-0.0040283203125,1.00891113281,1,1,1,1,50,31,1,45.7580566406
1561680169416070693,82987,1561680169415948989,gps,38.97958,117.7862174,4.66400003433,568099.958371,4314804.48035,0.0160828772932,0.0160828772932,0.0327124334872,0.0,0.0,-0.0030517578125,0.0103579582646,0.0103579582646,0.0103579582646,-0.208740234375,0.208740234375,-49.5153808594,-0.000891317712305,0.00241702139404,-0.4187772249,0.908085348117,0.0533970333636,0.0533970333636,0.45384478569,-0.03662109375,0.0823974609375,0.0457763671875,-0.0106201171875,-0.00146484375,0.990600585938,1,1,1,1,50,31,1,45.7580566406
1561680169435968980,82988,1561680169435849921,gps,38.97958,117.7862174,4.66300010681,568099.958371,4314804.48035,0.0160828772932,0.0160828772932,0.0327124334872,0.0,0.0,-0.0,0.0103579582646,0.0103579582646,0.0103579582646,-0.208740234375,0.2197265625,-49.5153808594,-0.000851167366901,0.0025040827087,-0.418776991247,0.90808525849,0.0533970333636,0.0533970333636,0.45384478569,-0.18310546875,0.018310546875,0.0274658203125,-0.003662109375,0.0062255859375,0.995361328125,1,1,1,1,50,31,1,45.7580566406
1561680169455628551,82989,1561680169455498354,gps,38.97958,117.7862174,4.66300010681,568099.958371,4314804.48035,0.0160828772932,0.0160828772932,0.0327124334872,-0.0030517578125,-0.006103515625,-0.0,0.0103579582646,0.0103579582646,0.0103579582646,-0.208740234375,0.24169921875,-49.5153808594,-0.00077086665299,0.00267820526818,-0.418776512391,0.908085054194,0.0533970333636,0.0533970333636,0.45384478569,0.164794921875,0.054931640625,0.091552734375,-0.002197265625,0.01025390625,1.01440429688,1,1,1,1,50,31,1,45.7580566406
1561680169476246844,82990,1561680169476009012,gps,38.97958,117.7862174,4.66200017929,568099.958371,4314804.48035,0.0160828772932,0.0160828772932,0.0327124334872,0.0030517578125,0.0030517578125,-0.0,0.0103579582646,0.0103579582646,0.0103579582646,-0.19775390625,0.252685546875,-49.5153808594,-0.000643654728809,0.00272511682697,-0.418776530382,0.908085005409,0.0533970333636,0.0533970333636,0.45384478569,-0.100708007812,-0.03662109375,-0.0732421875,0.0062255859375,0.0076904296875,1.00122070312,1,1,1,1,50,31,1,45.7580566406
1561680169496376631,82991,1561680169496094236,gps,38.97958,117.7862174,4.66099977493,568099.958371,4314804.48035,0.0160828772932,0.0160828772932,0.0327124334872,0.0030517578125,0.0,-0.0,0.0103579582646,0.0103579582646,0.0103579582646,-0.208740234375,0.274658203125,-49.5153808594,-0.000650415529903,0.00293938892076,-0.418775765239,0.908084685148,0.0533970333636,0.0533970333636,0.45384478569,-0.0274658203125,0.054931640625,-0.0457763671875,-0.008056640625,0.00732421875,0.99462890625,1,1,1,1,50,31,1,45.7580566406
1561680169516093101,82992,1561680169515938940,gps,38.97958,117.7862174,4.65999984741,568099.958371,4314804.48035,0.0160828772932,0.0160828772932,0.0327124334872,0.006103515625,0.006103515625,0.0030517578125,0.0103579582646,0.0103579582646,0.0103579582646,-0.208740234375,0.28564453125,-49.5153808594,-0.000610265143092,0.00302645008532,-0.418775508489,0.908084545439,0.0533970333636,0.0533970333636,0.45384478569,0.0,-0.091552734375,-0.210571289062,0.0,0.00146484375,1.00671386719,1,1,1,1,50,31,1,45.7580566406
1561680169536115761,82993,1561680169535997641,gps,38.97958,117.7862174,4.65999984741,568099.958371,4314804.48035,0.0160828772932,0.0160828772932,0.0327124334872,0.006103515625,0.0030517578125,-0.0,0.0103579582646,0.0103579582646,0.0103579582646,-0.208740234375,0.28564453125,-49.5153808594,-0.000610265143092,0.00302645008532,-0.418775508489,0.908084545439,0.0533970333636,0.0533970333636,0.45384478569,0.0640869140625,0.018310546875,-0.18310546875,0.0047607421875,0.00146484375,1.00598144531,1,1,1,1,50,31,1,45.7580566406
1561680169556452170,82994,1561680169556323461,gps,38.97958,117.7862174,4.65899991989,568099.958371,4314804.48035,0.0160828772932,0.0160828772932,0.0327124334872,0.0030517578125,0.0030517578125,0.0030517578125,0.0103579582646,0.0103579582646,0.0103579582646,-0.208740234375,0.296630859375,-49.5263671875,-0.000569816243902,0.00311356586682,-0.418862307467,0.908044243636,0.0533970333636,0.0533970333636,0.45384478569,-0.03662109375,-0.0732421875,-0.091552734375,0.0018310546875,0.0040283203125,0.995361328125,1,1,1,1,50,31,1,45.7580566406
1561680169576361988,82995,1561680169576211821,gps,38.97958,117.7862174,4.65899991989,568099.958371,4314804.48035,0.0160828772932,0.0160828772932,0.0327124334872,0.0030517578125,0.0,-0.006103515625,0.0103579582646,0.0103579582646,0.0103579582646,-0.208740234375,0.3076171875,-49.5263671875,-0.000529657499547,0.00320062312517,-0.418862043004,0.908044087259,0.0533970333636,0.0533970333636,0.45384478569,0.0823974609375,0.128173828125,-0.128173828125,-0.006591796875,0.0040283203125,0.9990234375,1,1,1,1,50,31,1,45.7580566406
1561680169596371074,82996,1561680169596201003,gps,38.97958,117.7862174,4.65799999237,568099.958371,4314804.48035,0.0160828772932,0.0160828772932,0.0327124334872,0.0,0.0,-0.0,0.0103579582646,0.0103579582646,0.0103579582646,-0.208740234375,0.318603515625,-49.5263671875,-0.000489498750323,0.0032876803541,-0.418861774691,0.908043922535,0.0533970333636,0.0533970333636,0.45384478569,-0.0732421875,0.018310546875,0.03662109375,-0.0054931640625,0.005126953125,1.01513671875,1,1,1,1,50,31,1,45.7580566406
1561680169616405030,82997,1561680169616254512,gps,38.97958,117.7862174,4.65799999237,568099.958371,4314804.48035,0.0160828772932,0.0160828772932,0.0327124334872,-0.0030517578125,0.0,0.0030517578125,0.0103579582646,0.0103579582646,0.0103579582646,-0.208740234375,0.32958984375,-49.5153808594,-0.000449663543444,0.00337469445736,-0.418774442998,0.908083903134,0.0533970333636,0.0533970333636,0.45384478569,-0.0732421875,-0.0732421875,0.137329101562,0.0047607421875,0.01025390625,0.994995117188,1,1,1,1,50,31,1,46.0998535156
1561680169636416663,82998,1561680169636268725,gps,38.97958,117.7862174,4.65700006485,568099.958371,4314804.48035,0.0160828772932,0.0160828772932,0.0327124334872,0.006103515625,0.0,-0.006103515625,0.0103579582646,0.0103579582646,0.0103579582646,-0.208740234375,0.32958984375,-49.5263671875,-0.000449339996599,0.00337473755281,-0.418861502527,0.908043749464,0.0533970333636,0.0533970333636,0.45384478569,-0.054931640625,0.146484375,-0.0823974609375,-0.0010986328125,0.0076904296875,0.992797851562,1,1,1,1,50,31,1,46.0998535156
1561680169656585458,82999,1561680169656420141,gps,38.97958,117.7862174,4.65700006485,568099.958371,4314804.48035,0.0160828772932,0.0160828772932,0.0327124334872,0.0030517578125,0.0,-0.0,0.0103579582646,0.0103579582646,0.0103579582646,-0.208740234375,0.340576171875,-49.5263671875,-0.000409181238746,0.0034617947205,-0.418861226514,0.908043568047,0.0533970333636,0.0533970333636,0.45384478569,-0.0091552734375,-0.0274658203125,-0.0732421875,0.0062255859375,0.006591796875,1.00231933594,1,1,1,1,50,31,1,46.0998535156
1561680169676300655,83000,1561680169676127944,gps,38.9795801,117.7862174,4.65600013733,568099.958275,4314804.49145,0.0160828772932,0.0160828772932,0.0327124334872,0.0,0.0,0.0030517578125,0.0103579582646,0.0103579582646,0.0103579582646,-0.208740234375,0.362548828125,-49.5263671875,-0.000328863712124,0.00363590895962,-0.418860662937,0.908043180173,0.0533970333636,0.0533970333636,0.45384478569,-0.0823974609375,-0.091552734375,0.0274658203125,0.0,0.0003662109375,1.00671386719,1,1,1,1,50,31,1,46.0998535156
1561680169697014693,83001,1561680169696866278,gps,38.9795801,117.7862174,4.65600013733,568099.958275,4314804.49145,0.0160828772932,0.0160828772932,0.0327124334872,0.0030517578125,-0.01220703125,-0.006103515625,0.0103579582646,0.0103579582646,0.0103579582646,-0.208740234375,0.37353515625,-49.5263671875,-0.000288704944094,0.00372296602945,-0.418860375374,0.908042973716,0.0533970333636,0.0533970333636,0.45384478569,0.0091552734375,0.128173828125,0.10986328125,-0.005126953125,0.0040283203125,0.978881835938,1,1,1,1,50,31,1,46.0998535156
1561680169716621271,83002,1561680169716428130,gps,38.9795801,117.7862173,4.65500020981,568099.949613,4314804.49137,0.0160828772932,0.0160828772932,0.0327124334872,0.006103515625,-0.0213623046875,-0.0030517578125,0.0103579582646,0.0103579582646,0.0103579582646,-0.208740234375,0.384521484375,-49.5263671875,-0.000248546173411,0.00381002306506,-0.41886008396,0.908042758913,0.0533970333636,0.0533970333636,0.45384478569,0.228881835938,0.0732421875,0.100708007812,-0.0084228515625,0.0032958984375,0.977783203125,1,1,1,1,50,31,1,46.0998535156
1561680169736669751,83003,1561680169736502369,gps,38.9795801,117.7862173,4.65399980545,568099.949613,4314804.49137,0.0160828772932,0.0160828772932,0.0327124334872,0.0244140625,-0.0213623046875,-0.0,0.0103579582646,0.0103579582646,0.0103579582646,-0.208740234375,0.3955078125,-49.5263671875,-0.000208387400443,0.00389708006565,-0.418859788696,0.908042535763,0.0533970333636,0.0533970333636,0.45384478569,0.0091552734375,0.0457763671875,-0.0640869140625,0.0,0.003662109375,1.00817871094,1,1,1,1,50,31,1,46.0998535156
1561680169755908036,83004,1561680169755746048,gps,38.9795801,117.7862173,4.65399980545,568099.949613,4314804.49137,0.0160828772932,0.0160828772932,0.0327124334872,0.03662109375,-0.042724609375,-0.0,0.0103579582646,0.0103579582646,0.0103579582646,-0.208740234375,0.406494140625,-49.5263671875,-0.00016822862556,0.00398413703041,-0.418859489582,0.908042304267,0.0533970333636,0.0533970333636,0.45384478569,0.0457763671875,-0.0274658203125,-0.03662109375,0.0172119140625,0.0003662109375,0.99609375,1,1,1,1,50,31,1,46.0998535156
1561680169777029487,83005,1561680169776841985,gps,38.9795801,117.7862173,4.65299987793,568099.949613,4314804.49137,0.0160828772932,0.0160828772932,0.0327124334872,0.0457763671875,-0.0518798828125,-0.0,0.0103579582646,0.0103579582646,0.0103579582646,-0.208740234375,0.41748046875,-49.5263671875,-0.00012806984913,0.00407119395856,-0.418859186618,0.908042064424,0.0533970333636,0.0533970333636,0.45384478569,0.128173828125,0.0,-0.10986328125,-0.000732421875,-0.0010986328125,1.00305175781,1,1,1,1,50,31,1,46.0998535156
1561680169796632032,83006,1561680169796481475,gps,38.9795801,117.7862173,4.65299987793,568099.949613,4314804.49137,0.0160828772932,0.0160828772932,0.0327124334872,0.048828125,-0.0640869140625,-0.0,0.0103579582646,0.0103579582646,0.0103579582646,-0.208740234375,0.428466796875,-49.5263671875,-8.79110715233e-05,0.00415825084928,-0.418858879805,0.908041816234,0.0533970333636,0.0533970333636,0.45384478569,0.03662109375,0.054931640625,0.03662109375,-0.0098876953125,-0.0032958984375,0.996826171875,1,1,1,1,50,31,1,46.0998535156
1561680169816286868,83007,1561680169816134764,gps,38.9795801,117.7862173,4.65199995041,568099.949613,4314804.49137,0.0160828772932,0.0160828772932,0.0327124334872,0.06103515625,-0.0579833984375,0.0030517578125,0.0103579582646,0.0103579582646,0.0103579582646,-0.208740234375,0.428466796875,-49.5263671875,-8.79110715233e-05,0.00415825084928,-0.418858879805,0.908041816234,0.0533970333636,0.0533970333636,0.45384478569,-0.146484375,-0.10986328125,-0.173950195312,-0.0098876953125,-0.0040283203125,1.00817871094,1,1,1,1,50,31,1,46.0998535156
1561680169836688052,83008,1561680169836544705,gps,38.9795801,117.7862172,4.65199995041,568099.940951,4314804.4913,0.0160828772932,0.0160828772932,0.0327124334872,0.054931640625,-0.0701904296875,-0.0,0.0103579582646,0.0103579582646,0.0103579582646,-0.208740234375,0.439453125,-49.5263671875,-4.77522931084e-05,0.00424530770179,-0.418858569141,0.908041559699,0.0533970333636,0.0533970333636,0.45384478569,-0.0640869140625,-0.0091552734375,0.0,-0.0040283203125,-0.0018310546875,0.990234375,1,1,1,1,50,31,1,46.0998535156
1561680169856043605,83009,1561680169855897279,gps,38.9795801,117.7862172,4.65100002289,568099.940951,4314804.4913,0.0160828772932,0.0160828772932,0.0327124334872,0.06103515625,-0.0732421875,-0.0,0.0103579582646,0.0103579582646,0.0103579582646,-0.208740234375,0.450439453125,-49.5263671875,-7.59351425459e-06,0.00433236451527,-0.418858254627,0.908041294816,0.0533970333636,0.0533970333636,0.45384478569,0.10986328125,0.091552734375,-0.100708007812,-0.000732421875,0.008056640625,0.99755859375,1,1,1,1,50,31,1,46.0998535156
1561680169876383313,83010,1561680169876212238,gps,38.9795802,117.7862172,4.65100002289,568099.940855,4314804.50239,0.0160828772932,0.0160828772932,0.0327124334872,0.0640869140625,-0.0823974609375,-0.0030517578125,0.0103579582646,0.0103579582646,0.0103579582646,-0.208740234375,0.46142578125,-49.5263671875,3.25652646691e-05,0.00441942128893,-0.418857936262,0.908041021587,0.0533970333636,0.0533970333636,0.45384478569,-0.0732421875,0.100708007812,0.03662109375,0.0032958984375,0.0135498046875,1.00671386719,1,1,1,1,50,31,1,46.0998535156
1561680169897213873,83011,1561680169896984126,gps,38.9795802,117.7862172,4.65100002289,568099.940855,4314804.50239,0.0160828772932,0.0160828772932,0.0327124334872,0.067138671875,-0.0823974609375,0.006103515625,0.0103579582646,0.0103579582646,0.0103579582646,-0.208740234375,0.472412109375,-49.5263671875,7.27240432934e-05,0.00450647802196,-0.418857614048,0.908040740012,0.0533970333636,0.0533970333636,0.45384478569,0.0823974609375,-0.091552734375,-0.10986328125,0.0128173828125,0.0029296875,1.00598144531,1,1,1,1,50,31,1,46.0998535156
1561680169917047922,83012,1561680169916895805,gps,38.9795802,117.7862172,4.65000009537,568099.940855,4314804.50239,0.0160828772932,0.0160828772932,0.0327124334872,0.067138671875,-0.091552734375,0.006103515625,0.0103579582646,0.0103579582646,0.0103579582646,-0.208740234375,0.472412109375,-49.5373535156,7.31560961276e-05,0.00450647102892,-0.418944669439,0.908000578368,0.0533970333636,0.0533970333636,0.45384478569,0.03662109375,-0.0732421875,0.03662109375,0.0029296875,0.0018310546875,1.01220703125,1,1,1,1,50,31,1,46.0998535156
1561680169937133668,83013,1561680169936960046,gps,38.9795802,117.7862171,4.65000009537,568099.932193,4314804.50232,0.0160828772932,0.0160828772932,0.0327124334872,0.0762939453125,-0.0946044921875,-0.0,0.0103579582646,0.0103579582646,0.0103579582646,-0.208740234375,0.4833984375,-49.5373535156,0.000113323220355,0.00459352386996,-0.418944343347,0.908000288477,0.0533970333636,0.0533970333636,0.45384478569,0.0091552734375,0.10986328125,-0.03662109375,0.00146484375,-0.0018310546875,0.996459960938,1,1,1,1,50,31,1,46.0998535156
1561680169956227317,83014,1561680169956047138,gps,38.9795802,117.7862171,4.65000009537,568099.932193,4314804.50232,0.016572676599,0.016572676599,0.0327124334872,0.0762939453125,-0.091552734375,0.0091552734375,0.0103579582646,0.0103579582646,0.0103579582646,-0.208740234375,0.494384765625,-49.5373535156,0.00015349034354,0.00468057666877,-0.418944013404,0.90799999024,0.0533970333636,0.0533970333636,0.45384478569,0.0091552734375,-0.0732421875,-0.0640869140625,-0.0040283203125,0.0,1.01879882812,1,1,1,1,50,31,1,46.0998535156
1561680169976019484,83015,1561680169975852629,gps,38.9795802,117.7862171,4.64900016785,568099.932193,4314804.50232,0.016572676599,0.016572676599,0.0327124334872,0.079345703125,-0.09765625,0.0030517578125,0.0308074112982,0.0330411978066,0.0244775228202,-0.19775390625,0.50537109375,-49.5373535156,0.000280710843675,0.00472746368048,-0.418944134776,0.907999660917,0.0533970333636,0.0533970333636,0.45384478569,-0.0091552734375,0.0091552734375,0.03662109375,0.0010986328125,0.0069580078125,0.99755859375,1,1,1,1,50,31,1,46.0998535156
1561680169999825522,83016,1561680169996610234,gps,38.9795802,117.7862171,4.64900016785,568099.932193,4314804.50232,0.016572676599,0.016572676599,0.0327124334872,0.0885009765625,-0.100708007812,-0.0030517578125,0.0308074112982,0.0330411978066,0.0244775228202,-0.19775390625,0.516357421875,-49.5373535156,0.000320877933291,0.00481451642443,-0.418943805477,0.907999342137,0.0518189147115,0.0518189147115,0.45384478569,0.100708007812,0.228881835938,-0.10986328125,-0.0054931640625,0.005859375,1.00268554688,1,1,1,1,50,31,1,46.0998535156
1561680170015990491,83017,1561680170015858927,gps,38.9795803,117.786217,4.64900016785,568099.923436,4314804.51334,0.016572676599,0.016572676599,0.0327124334872,0.0885009765625,-0.100708007812,0.006103515625,0.0308074112982,0.0330411978066,0.0244775228202,-0.19775390625,0.52734375,-49.5373535156,0.000361045019958,0.00490156912411,-0.418943472328,0.907999015011,0.0518189147115,0.0518189147115,0.45384478569,-0.0091552734375,0.0091552734375,-0.0732421875,0.0062255859375,0.006591796875,1.01550292969,1,1,1,1,50,31,1,46.0998535156
1561680170035985504,83018,1561680170035865098,gps,38.9795803,117.786217,4.64799976349,568099.923436,4314804.51334,0.016572676599,0.016572676599,0.0327124334872,0.0885009765625,-0.100708007812,0.006103515625,0.0308074112982,0.0330411978066,0.0244775228202,-0.19775390625,0.538330078125,-49.5373535156,0.000401212103307,0.00498862177875,-0.418943135328,0.907998679538,0.0518189147115,0.0518189147115,0.45384478569,0.054931640625,-0.0457763671875,-0.128173828125,0.0062255859375,0.0047607421875,1.00085449219,1,1,1,1,50,31,1,46.0998535156
1561680170056151888,83019,1561680170055973111,gps,38.9795803,117.786217,4.64699983597,568099.923436,4314804.51334,0.016572676599,0.016572676599,0.0327124334872,0.0885009765625,-0.106811523438,0.0030517578125,0.0308074112982,0.0330411978066,0.0244775228202,-0.19775390625,0.54931640625,-49.5373535156,0.000441379182967,0.00507567438753,-0.418942794477,0.90799833572,0.0518189147115,0.0518189147115,0.45384478569,-0.137329101562,0.0,0.018310546875,0.0010986328125,0.0076904296875,0.985473632812,1,1,1,1,50,31,1,46.0998535156
1561680170076361201,83020,1561680170076227995,gps,38.9795803,117.7862169,4.64699983597,568099.914774,4314804.51327,0.016572676599,0.016572676599,0.0327124334872,0.0823974609375,-0.115966796875,-0.0,0.0308074112982,0.0330411978066,0.0244775228202,-0.19775390625,0.560302734375,-49.5373535156,0.00048154625857,0.00516272694965,-0.418942449775,0.907997983555,0.0518189147115,0.0518189147115,0.45384478569,0.0457763671875,0.0091552734375,0.10986328125,-0.003662109375,0.005859375,0.99609375,1,1,1,1,50,31,1,46.0998535156
1561680170097163969,83021,1561680170096988199,gps,38.9795803,117.7862169,4.64599990845,568099.914774,4314804.51327,0.016572676599,0.016572676599,0.0327124334872,0.09765625,-0.10986328125,-0.0030517578125,0.0308074112982,0.0330411978066,0.0244775228202,-0.208740234375,0.5712890625,-49.5373535156,0.000434660145658,0.00528994501104,-0.418941595981,0.90799766889,0.0518189147115,0.0518189147115,0.45384478569,-0.164794921875,0.128173828125,-0.119018554688,-0.00146484375,0.0087890625,1.00671386719,1,1,1,1,50,31,1,46.0998535156
1561680170117097336,83022,1561680170116926672,gps,38.9795804,117.7862169,4.64499998093,568099.914678,4314804.52436,0.016572676599,0.016572676599,0.0327124334872,0.0946044921875,-0.10986328125,-0.0,0.0308074112982,0.0330411978066,0.0244775228202,-0.208740234375,0.582275390625,-49.5373535156,0.000474827247219,0.00537699744327,-0.418941235231,0.907997303884,0.0518189147115,0.0518189147115,0.45384478569,-0.238037109375,-0.03662109375,-0.0274658203125,0.0003662109375,0.0018310546875,0.989868164062,1,1,1,1,50,31,1,46.0998535156
1561680170137006611,83023,1561680170136837765,gps,38.9795804,117.7862169,4.64499998093,568099.914678,4314804.52436,0.016572676599,0.016572676599,0.0327124334872,0.0946044921875,-0.115966796875,-0.0030517578125,0.0308074112982,0.0330411978066,0.0244775228202,-0.208740234375,0.59326171875,-49.5483398438,0.000515518201264,0.00546400042649,-0.419027921821,0.907956760906,0.0518189147115,0.0518189147115,0.45384478569,-0.192260742188,0.119018554688,0.054931640625,-0.01318359375,0.0029296875,0.996826171875,1,1,1,1,50,31,1,46.0998535156
1561680170156961632,83024,1561680170156848489,gps,38.9795804,117.7862168,4.64499998093,568099.906016,4314804.52429,0.016572676599,0.016572676599,0.0327124334872,0.0885009765625,-0.10986328125,-0.0030517578125,0.0308074112982,0.0330411978066,0.0244775228202,-0.208740234375,0.604248046875,-49.5483398438,0.00055569363958,0.0055510489077,-0.419027553333,0.907956379243,0.0518189147115,0.0518189147115,0.45384478569,0.054931640625,0.0640869140625,-0.018310546875,-0.0146484375,0.0018310546875,0.998657226562,1,1,1,1,50,31,1,46.0998535156
1561680170177022346,83025,1561680170176858596,gps,38.9795804,117.7862168,4.64499998093,568099.906016,4314804.52429,0.016572676599,0.016572676599,0.0327124334872,0.100708007812,-0.09765625,-0.0,0.0308074112982,0.0330411978066,0.0244775228202,-0.208740234375,0.604248046875,-49.5483398438,0.00055569363958,0.0055510489077,-0.419027553333,0.907956379243,0.0518189147115,0.0518189147115,0.45384478569,0.018310546875,-0.0823974609375,-0.29296875,0.0,0.0,1.00048828125,1,1,1,1,50,31,1,46.0998535156
1561680170196068183,83026,1561680170195911903,gps,38.9795804,117.7862168,4.64499998093,568099.906016,4314804.52429,0.016572676599,0.016572676599,0.0327124334872,0.0946044921875,-0.106811523438,0.006103515625,0.0308074112982,0.0330411978066,0.0244775228202,-0.208740234375,0.604248046875,-49.5483398438,0.00055569363958,0.0055510489077,-0.419027553333,0.907956379243,0.0518189147115,0.0518189147115,0.45384478569,-0.054931640625,-0.247192382812,-0.0457763671875,0.008056640625,0.000732421875,0.992065429688,1,1,1,1,50,31,1,46.0998535156
1561680170216229109,83027,1561680170216095903,gps,38.9795805,117.7862167,4.64499998093,568099.897259,4314804.53531,0.016572676599,0.016572676599,0.0327124334872,0.09765625,-0.112915039062,0.0091552734375,0.0308074112982,0.0330411978066,0.0244775228202,-0.208740234375,0.59326171875,-49.5483398438,0.000515518201264,0.00546400042649,-0.419027921821,0.907956760906,0.0518189147115,0.0518189147115,0.45384478569,0.10986328125,-0.29296875,-0.173950195312,-0.0029296875,0.005126953125,1.013671875,1,1,1,1,50,31,1,46.0998535156
1561680170236203917,83028,1561680170236024703,gps,38.9795805,117.7862167,4.64499998093,568099.897259,4314804.53531,0.016572676599,0.016572676599,0.0327124334872,0.09765625,-0.1220703125,-0.0,0.0308074112982,0.0330411978066,0.0244775228202,-0.208740234375,0.59326171875,-49.5483398438,0.000515518201264,0.00546400042649,-0.419027921821,0.907956760906,0.0518189147115,0.0518189147115,0.45384478569,-0.146484375,-0.054931640625,0.10986328125,-0.030029296875,-0.000732421875,1.02026367188,1,1,1,1,50,31,1,46.0998535156
1561680170256314183,83029,1561680170256178603,gps,38.9795805,117.7862167,4.64499998093,568099.897259,4314804.53531,0.016572676599,0.016572676599,0.0327124334872,0.0885009765625,-0.115966796875,0.006103515625,0.0308074112982,0.0330411978066,0.0244775228202,-0.208740234375,0.59326171875,-49.5483398438,0.000515518201264,0.00546400042649,-0.419027921821,0.907956760906,0.0518189147115,0.0518189147115,0.45384478569,-0.192260742188,-0.238037109375,0.100708007812,-0.0516357421875,0.0,0.977783203125,1,1,1,1,50,31,1,46.0998535156
1561680170277033653,83030,1561680170276906136,gps,38.9795805,117.7862167,4.64499998093,568099.897259,4314804.53531,0.016572676599,0.016572676599,0.0327124334872,0.09765625,-0.100708007812,-0.0,0.0308074112982,0.0330411978066,0.0244775228202,-0.208740234375,0.59326171875,-49.5483398438,0.000515518201264,0.00546400042649,-0.419027921821,0.907956760906,0.0518189147115,0.0518189147115,0.45384478569,0.054931640625,-0.228881835938,-0.25634765625,-0.049072265625,0.006591796875,0.9521484375,1,1,1,1,50,31,1,46.0998535156
1561680170296965887,83031,1561680170296804850,gps,38.9795805,117.7862166,4.64499998093,568099.888597,4314804.53524,0.016572676599,0.016572676599,0.0327124334872,0.09765625,-0.106811523438,-0.018310546875,0.0308074112982,0.0330411978066,0.0244775228202,-0.208740234375,0.582275390625,-49.5593261719,0.000475858264831,0.00537690629743,-0.419115333831,0.907916956217,0.0518189147115,0.0518189147115,0.45384478569,-0.0091552734375,-0.018310546875,-0.164794921875,-0.00732421875,-0.0003662109375,0.945922851562,1,1,1,1,50,31,1,46.0998535156
1561680170316820376,83032,1561680170316682023,gps,38.9795805,117.7862166,4.64499998093,568099.888597,4314804.53524,0.016572676599,0.016572676599,0.0327124334872,0.0946044921875,-0.103759765625,0.0030517578125,0.0308074112982,0.0330411978066,0.0244775228202,-0.208740234375,0.5712890625,-49.5593261719,0.000435674471914,0.00528986156875,-0.41911569465,0.907917321153,0.0518189147115,0.0518189147115,0.45384478569,-0.0732421875,-0.531005859375,-0.173950195312,-0.00732421875,-0.0032958984375,1.01953125,1,1,1,1,50,31,1,46.0998535156
1561680170336484389,83033,1561680170336370467,gps,38.9795806,117.7862166,4.64499998093,568099.888501,4314804.54633,0.016572676599,0.016572676599,0.0327124334872,0.0946044921875,-0.0946044921875,0.0244140625,0.0308074112982,0.0330411978066,0.0244775228202,-0.208740234375,0.560302734375,-49.5593261719,0.000395490674992,0.00520281679144,-0.419116051617,0.907917677745,0.0518189147115,0.0518189147115,0.45384478569,-0.100708007812,-0.888061523438,-0.32958984375,-0.0355224609375,-0.005859375,1.01989746094,1,1,1,1,50,31,1,46.0998535156
1561680170356523502,83034,1561680170356388614,gps,38.9795806,117.7862165,4.64599990845,568099.879839,4314804.54626,0.016572676599,0.016572676599,0.0327124334872,0.0946044921875,-0.10986328125,0.01220703125,0.0308074112982,0.0330411978066,0.0244775228202,-0.208740234375,0.538330078125,-49.5703125,0.000315605192335,0.00502869685901,-0.419203797651,0.907878179403,0.0518189147115,0.0518189147115,0.45384478569,-0.192260742188,-0.604248046875,-0.10986328125,-0.056396484375,0.000732421875,1.01293945312,1,1,1,1,50,31,1,46.0998535156
1561680170376731582,83035,1561680170376589016,gps,38.9795806,117.7862165,4.64599990845,568099.879839,4314804.54626,0.016572676599,0.016572676599,0.0327124334872,0.0885009765625,-0.103759765625,0.006103515625,0.0308074112982,0.0330411978066,0.0244775228202,-0.2197265625,0.52734375,-49.5703125,0.000188371277247,0.00498184646469,-0.419203667391,0.907878533158,0.0518189147115,0.0518189147115,0.45384478569,-0.485229492188,-0.567626953125,0.018310546875,-0.062255859375,0.00146484375,1.01403808594,1,1,1,1,50,31,1,46.0998535156
1561680170397188572,83036,1561680170396998405,gps,38.9795806,117.7862165,4.64599990845,568099.879839,4314804.54626,0.016572676599,0.016572676599,0.0327124334872,0.0823974609375,-0.09765625,-0.0,0.0308074112982,0.0330411978066,0.0244775228202,-0.2197265625,0.516357421875,-49.5703125,0.000148179092055,0.00489480538701,-0.419204017324,0.907878852481,0.0518189147115,0.0518189147115,0.45384478569,-0.155639648438,-0.430297851562,-0.03662109375,-0.0465087890625,0.0062255859375,0.97412109375,1,1,1,1,50,31,1,45.8557128906
1561680170416548260,83037,1561680170416405838,gps,38.9795806,117.7862165,4.64599990845,568099.879839,4314804.54626,0.016572676599,0.016572676599,0.0327124334872,0.0732421875,-0.09765625,-0.0030517578125,0.0308074112982,0.0330411978066,0.0244775228202,-0.2197265625,0.50537109375,-49.5703125,0.0001079869055,0.00480776426435,-0.419204363404,0.90787916346,0.0518189147115,0.0518189147115,0.45384478569,0.0732421875,-0.40283203125,0.0,-0.0406494140625,0.0179443359375,0.973388671875,1,1,1,1,50,31,1,45.8557128906
1561680170436344029,83038,1561680170436187796,gps,38.9795807,117.7862164,4.64599990845,568099.871082,4314804.55728,0.016572676599,0.016572676599,0.0327124334872,0.079345703125,-0.091552734375,-0.0,0.0308074112982,0.0330411978066,0.0244775228202,-0.2197265625,0.494384765625,-49.5703125,6.77947179523e-05,0.00472072309749,-0.419204705631,0.907879466094,0.0518189147115,0.0518189147115,0.45384478569,-0.0457763671875,-0.430297851562,-0.128173828125,-0.031494140625,0.01611328125,1.03125,1,1,1,1,50,31,1,45.8557128906
1561680170456185548,83039,1561680170456021873,gps,38.9795807,117.7862164,4.64599990845,568099.871082,4314804.55728,0.016572676599,0.016572676599,0.0327124334872,0.0762939453125,-0.08544921875,0.0091552734375,0.0308074112982,0.0330411978066,0.0244775228202,-0.230712890625,0.494384765625,-49.5703125,-1.92471358949e-05,0.00476091382352,-0.419204251111,0.907879468421,0.0518189147115,0.0518189147115,0.45384478569,-0.210571289062,-0.466918945312,-0.0823974609375,-0.068115234375,0.0135498046875,1.02612304688,1,1,1,1,50,31,1,45.8557128906
1561680170476658062,83040,1561680170476513800,gps,38.9795807,117.7862164,4.64599990845,568099.871082,4314804.55728,0.016572676599,0.016572676599,0.0327124334872,0.0640869140625,-0.0762939453125,0.0244140625,0.0308074112982,0.0330411978066,0.0244775228202,-0.230712890625,0.4833984375,-49.5703125,-5.94393520953e-05,0.00467387264611,-0.419204597829,0.907879758856,0.0518189147115,0.0518189147115,0.45384478569,-0.091552734375,-0.76904296875,-0.0274658203125,-0.06591796875,0.005859375,0.998291015625,1,1,1,1,50,31,1,45.8557128906
1561680170496488436,83041,1561680170496263306,gps,38.9795807,117.7862164,4.64599990845,568099.871082,4314804.55728,0.016572676599,0.016572676599,0.0327124334872,0.0640869140625,-0.079345703125,-0.0,0.0308074112982,0.0330411978066,0.0244775228202,-0.230712890625,0.472412109375,-49.5703125,-9.96315677494e-05,0.00458683142574,-0.419204940694,0.907880040946,0.0518189147115,0.0518189147115,0.45384478569,-0.210571289062,-0.32958984375,0.03662109375,-0.0303955078125,-0.000732421875,0.970092773438,1,1,1,1,50,31,1,45.8557128906
1561680170516280559,83042,1561680170516131483,gps,38.9795807,117.7862164,4.64599990845,568099.871082,4314804.55728,0.016572676599,0.016572676599,0.0327124334872,0.0732421875,-0.0885009765625,-0.0244140625,0.0308074112982,0.0330411978066,0.0244775228202,-0.24169921875,0.472412109375,-49.5703125,-0.00018667347594,0.00462702217492,-0.419204499011,0.907880027222,0.0518189147115,0.0518189147115,0.45384478569,-0.302124023438,0.155639648438,0.0732421875,-0.0281982421875,0.008056640625,1.00048828125,1,1,1,1,50,31,1,45.8557128906
1561680170536558078,83043,1561680170536388996,gps,38.9795808,117.7862163,4.64599990845,568099.862324,4314804.5683,0.016572676599,0.016572676599,0.0327124334872,0.0701904296875,-0.0885009765625,-0.0,0.0308074112982,0.0330411978066,0.0244775228202,-0.24169921875,0.472412109375,-49.5703125,-0.00018667347594,0.00462702217492,-0.419204499011,0.907880027222,0.0518189147115,0.0518189147115,0.45384478569,-0.018310546875,-0.146484375,0.0,-0.03955078125,0.0032958984375,1.03234863281,1,1,1,1,50,31,1,45.8557128906
1561680170555835456,83044,1561680170555719903,gps,38.9795808,117.7862163,4.64599990845,568099.862324,4314804.5683,0.016572676599,0.016572676599,0.0327124334872,0.0640869140625,-0.079345703125,0.01220703125,0.0308074112982,0.0330411978066,0.0244775228202,-0.24169921875,0.46142578125,-49.5703125,-0.000226865716739,0.0045399809453,-0.419204846368,0.907880297113,0.0518189147115,0.0518189147115,0.45384478569,-0.054931640625,-0.503540039062,0.018310546875,-0.0465087890625,0.02490234375,1.04479980469,1,1,1,1,50,31,1,45.8557128906
1561680170577017688,83045,1561680170576837822,gps,38.9795808,117.7862163,4.64599990845,568099.862324,4314804.5683,0.016572676599,0.016572676599,0.0327124334872,0.067138671875,-0.0762939453125,-0.0,0.0308074112982,0.0330411978066,0.0244775228202,-0.24169921875,0.46142578125,-49.5703125,-0.000226865716739,0.0045399809453,-0.419204846368,0.907880297113,0.0518189147115,0.0518189147115,0.45384478569,-0.100708007812,-0.0823974609375,-0.0457763671875,-0.0626220703125,0.0113525390625,1.01696777344,1,1,1,1,50,31,1,45.8557128906
1561680170597039250,83046,1561680170596803788,gps,38.9795808,117.7862162,4.64599990845,568099.853662,4314804.56823,0.016572676599,0.016572676599,0.0327124334872,0.0579833984375,-0.0762939453125,-0.0091552734375,0.0308074112982,0.0330411978066,0.0244775228202,-0.24169921875,0.46142578125,-49.5703125,-0.000226865716739,0.0045399809453,-0.419204846368,0.907880297113,0.0518189147115,0.0518189147115,0.45384478569,0.0732421875,0.0823974609375,-0.018310546875,-0.0703125,0.010986328125,1.00927734375,1,1,1,1,50,30,1,45.8557128906
1561680170616771990,83047,1561680170616589240,gps,38.9795808,117.7862162,4.64599990845,568099.853662,4314804.56823,0.016572676599,0.016572676599,0.0327124334872,0.0518798828125,-0.0640869140625,0.0030517578125,0.0308074112982,0.0330411978066,0.0244775228202,-0.24169921875,0.46142578125,-49.5703125,-0.000226865716739,0.0045399809453,-0.419204846368,0.907880297113,0.0518189147115,0.0518189147115,0.45384478569,0.146484375,-0.100708007812,-0.10986328125,-0.0523681640625,0.012451171875,0.989135742188,1,1,1,1,50,30,1,45.8557128906
1561680170636800033,83048,1561680170636634005,gps,38.9795808,117.7862162,4.64599990845,568099.853662,4314804.56823,0.016572676599,0.016572676599,0.0327124334872,0.0518798828125,-0.0640869140625,-0.0030517578125,0.0308074112982,0.0330411978066,0.0244775228202,-0.24169921875,0.46142578125,-49.5812988281,-0.000226430450475,0.00454000267491,-0.419291886374,0.90784010218,0.0518189147115,0.0518189147115,0.45384478569,-0.119018554688,0.164794921875,-0.0091552734375,-0.037353515625,0.0098876953125,0.982543945312,1,1,1,1,50,30,1,45.8557128906
1561680170656920447,83049,1561680170656810329,gps,38.9795808,117.7862162,4.64599990845,568099.853662,4314804.56823,0.016572676599,0.016572676599,0.0327124334872,0.048828125,-0.067138671875,-0.0030517578125,0.0308074112982,0.0330411978066,0.0244775228202,-0.24169921875,0.472412109375,-49.5812988281,-0.000186229864888,0.00462704005075,-0.419291538992,0.907839832321,0.0518189147115,0.0518189147115,0.45384478569,0.0091552734375,0.25634765625,0.03662109375,-0.0384521484375,0.01025390625,1.03198242188,1,1,1,1,50,30,1,45.8557128906
1561680170676937613,83050,1561680170676755768,gps,38.9795808,117.7862162,4.64599990845,568099.853662,4314804.56823,0.016572676599,0.016572676599,0.0327124334872,0.0457763671875,-0.06103515625,-0.0,0.0308074112982,0.0330411978066,0.0244775228202,-0.24169921875,0.472412109375,-49.5812988281,-0.000186229864888,0.00462704005075,-0.419291538992,0.907839832321,0.0518189147115,0.0518189147115,0.45384478569,0.0457763671875,0.201416015625,0.03662109375,-0.047607421875,0.002197265625,0.9990234375,1,1,1,1,50,30,1,45.8557128906
1561680170697076606,83051,1561680170696915628,gps,38.9795809,117.7862161,4.64599990845,568099.844905,4314804.57925,0.016572676599,0.016572676599,0.0327124334872,0.0396728515625,-0.054931640625,-0.0,0.0308074112982,0.0330411978066,0.0244775228202,-0.24169921875,0.472412109375,-49.5812988281,-0.000186229864888,0.00462704005075,-0.419291538992,0.907839832321,0.0518189147115,0.0518189147115,0.45384478569,-0.03662109375,0.119018554688,0.0640869140625,-0.0545654296875,0.003662109375,0.990600585938,1,1,1,1,50,30,1,45.8557128906
1561680170716120278,83052,1561680170715980056,gps,38.9795809,117.7862161,4.64599990845,568099.844905,4314804.57925,0.016572676599,0.016572676599,0.0327124334872,0.0335693359375,-0.0579833984375,-0.0030517578125,0.0308074112982,0.0330411978066,0.0244775228202,-0.24169921875,0.472412109375,-49.5812988281,-0.000186229864888,0.00462704005075,-0.419291538992,0.907839832321,0.0518189147115,0.0518189147115,0.45384478569,0.155639648438,0.247192382812,0.10986328125,-0.050537109375,0.0,0.994262695312,1,1,1,1,50,30,1,45.8557128906
1561680170737144284,83053,1561680170736948963,gps,38.9795809,117.7862161,4.64599990845,568099.844905,4314804.57925,0.0183156393468,0.0188734326512,0.0330411978066,0.03662109375,-0.054931640625,-0.0091552734375,0.0308074112982,0.0330411978066,0.0244775228202,-0.24169921875,0.4833984375,-49.5812988281,-0.000146029277589,0.00471407738407,-0.419291187755,0.907839554118,0.0518189147115,0.0518189147115,0.45384478569,0.29296875,0.29296875,0.0274658203125,-0.050537109375,0.002197265625,1.00817871094,1,1,1,1,50,30,1,45.8557128906
1561680170756249552,83054,1561680170756124480,gps,38.9795809,117.7862161,4.64799976349,568099.844905,4314804.57925,0.0183156393468,0.0188734326512,0.0330411978066,0.054931640625,-0.048828125,0.0213623046875,0.0308074112982,0.0323869399726,0.0265161804855,-0.24169921875,0.4833984375,-49.5812988281,-0.000146029277589,0.00471407738407,-0.419291187755,0.907839554118,0.0518189147115,0.0518189147115,0.45384478569,-0.192260742188,0.0640869140625,-0.0823974609375,-0.0421142578125,0.005126953125,0.99169921875,1,1,1,1,50,30,1,45.8557128906
1561680170776305199,83055,1561680170776092803,gps,38.9795809,117.786216,4.64799976349,568099.836243,4314804.57918,0.0183156393468,0.0188734326512,0.0330411978066,0.042724609375,-0.048828125,0.01220703125,0.0308074112982,0.0323869399726,0.0265161804855,-0.24169921875,0.4833984375,-49.5812988281,-0.000146029277589,0.00471407738407,-0.419291187755,0.907839554118,0.0590128563344,0.0590128563344,0.45384478569,0.18310546875,0.054931640625,-0.03662109375,-0.0501708984375,0.0087890625,0.977783203125,1,1,1,1,50,30,1,45.8557128906
1561680170796140266,83056,1561680170795914788,gps,38.9795809,117.786216,4.64799976349,568099.836243,4314804.57918,0.0183156393468,0.0188734326512,0.0330411978066,0.03662109375,-0.048828125,-0.0,0.0308074112982,0.0323869399726,0.0265161804855,-0.230712890625,0.4833984375,-49.5812988281,-5.89912498951e-05,0.00467387832331,-0.419291637784,0.907839563946,0.0590128563344,0.0590128563344,0.45384478569,0.173950195312,0.18310546875,0.03662109375,-0.0531005859375,0.0,0.995361328125,1,1,1,1,50,30,1,45.8557128906
