%time,field.header.seq,field.header.stamp,field.header.frame_id,field.latitude,field.longitude,field.altitude,field.utm_east,field.utm_north,field.latitude_std,field.longitude_std,field.altitude_std,field.north_velocity,field.east_velocity,field.up_velocity,field.north_velocity_std,field.east_velocity_std,field.up_velocity_std,field.roll,field.pitch,field.yaw,field.x,field.y,field.z,field.w,field.roll_std,field.pitch_std,field.yaw_std,field.roll_rate,field.pitch_rate,field.yaw_rate,field.ax,field.ay,field.az,field.init_position,field.init_velocity,field.init_pitchroll,field.init_yaw,field.gps_status,field.gps_satellitenum,field.wheelspeed_status,field.temperature
1561680566847399187,102858,1561680566847142228,gps,38.9795441,117.7863496,4.67100000381,568111.443714,4314800.59528,0.0804596096277,0.071361258626,0.0590128563344,1.12915039062,-1.32751464844,0.0030517578125,0.0354369617999,0.036516174674,0.029896914959,-0.362548828125,0.977783203125,-49.8559570312,0.000727340397109,0.00907114680096,-0.421436754607,0.906812134424,0.105399221182,0.105399221182,0.516851305962,0.274658203125,0.5126953125,-0.146484375,-0.0172119140625,0.0172119140625,1.00341796875,1,1,1,1,34,16,1,46.0510253906
1561680566867045374,102859,1561680566866881436,gps,38.9795443,117.7863493,4.67100000381,568111.417537,4314800.61725,0.0804596096277,0.071361258626,0.0590128563344,1.123046875,-1.32751464844,0.0213623046875,0.0354369617999,0.036516174674,0.029896914959,-0.3515625,0.977783203125,-49.8559570312,0.00081427991816,0.00903074201653,-0.421437622355,0.906812060523,0.105399221182,0.105399221182,0.516851305962,0.567626953125,0.228881835938,-0.100708007812,0.000732421875,0.0205078125,0.986206054688,1,1,1,1,34,16,1,46.0510253906
1561680566888185463,102860,1561680566888002728,gps,38.9795445,117.786349,4.67199993134,568111.39136,4314800.63922,0.0804596096277,0.071361258626,0.0590128563344,1.12609863281,-1.33361816406,0.018310546875,0.0354369617999,0.036516174674,0.029896914959,-0.340576171875,0.977783203125,-49.8669433594,0.000902081365361,0.00899025070444,-0.421525423802,0.906771569211,0.105399221182,0.105399221182,0.516851305962,0.411987304688,0.411987304688,0.0,0.0091552734375,0.0,1.00012207031,1,1,1,1,34,16,1,46.0510253906
1561680566906907888,102861,1561680566906737895,gps,38.9795447,117.7863487,4.67199993134,568111.365182,4314800.66119,0.0804596096277,0.071361258626,0.0590128563344,1.11999511719,-1.33972167969,0.030517578125,0.0354369617999,0.036516174674,0.029896914959,-0.340576171875,0.977783203125,-49.8669433594,0.000902081365361,0.00899025070444,-0.421525423802,0.906771569211,0.105399221182,0.105399221182,0.516851305962,0.558471679688,0.25634765625,0.0274658203125,0.003662109375,-0.01904296875,0.999389648438,1,1,1,1,34,16,1,46.0510253906
1561680566926431154,102862,1561680566926246127,gps,38.9795449,117.7863484,4.67299985886,568111.339005,4314800.68316,0.0804596096277,0.071361258626,0.0590128563344,1.11389160156,-1.33666992188,0.0457763671875,0.0354369617999,0.036516174674,0.029896914959,-0.32958984375,0.977783203125,-49.8559570312,0.000988158937008,0.00894993219901,-0.421439346231,0.906811887717,0.105399221182,0.105399221182,0.516851305962,0.457763671875,-0.155639648438,0.137329101562,0.0032958984375,-0.0135498046875,1.0166015625,1,1,1,1,34,16,1,46.0510253906
1561680566947512081,102863,1561680566947353167,gps,38.9795451,117.7863481,4.67299985886,568111.312828,4314800.70513,0.0804596096277,0.071361258626,0.0590128563344,1.11389160156,-1.33666992188,0.0457763671875,0.0354369617999,0.036516174674,0.029896914959,-0.318603515625,0.977783203125,-49.8559570312,0.00107509843321,0.00890952716667,-0.421440202358,0.906811788811,0.105399221182,0.105399221182,0.516851305962,0.6591796875,-0.18310546875,0.0,-0.0025634765625,0.00732421875,0.997924804688,1,1,1,1,34,16,1,46.0510253906
1561680566966645829,102864,1561680566966492733,gps,38.9795453,117.7863477,4.67299985886,568111.277989,4314800.72703,0.0804596096277,0.071361258626,0.0590128563344,1.11389160156,-1.318359375,0.0335693359375,0.0354369617999,0.036516174674,0.029896914959,-0.3076171875,0.966796875,-49.8779296875,0.0011233127184,0.00878196915079,-0.421615502186,0.906731483684,0.105399221182,0.105399221182,0.516851305962,0.485229492188,-0.155639648438,-0.164794921875,-0.0106201171875,0.0172119140625,0.994262695312,1,1,1,1,34,16,1,46.0510253906
1561680566987417121,102865,1561680566987266071,gps,38.9795455,117.7863474,4.67399978638,568111.251812,4314800.749,0.0862935855985,0.0765355527401,0.0596059449017,1.12915039062,-1.318359375,0.0244140625,0.0354369617999,0.036516174674,0.029896914959,-0.296630859375,0.966796875,-49.8779296875,0.00121024450533,0.00874154723048,-0.421616342209,0.90673137182,0.105399221182,0.105399221182,0.516851305962,0.393676757812,0.018310546875,-0.3662109375,-0.0135498046875,0.0172119140625,0.990600585938,1,1,1,1,34,16,1,46.0510253906
1561680567006540054,102866,1561680567006352210,gps,38.9795457,117.7863471,4.67399978638,568111.225635,4314800.77097,0.0862935855985,0.0765355527401,0.0596059449017,1.13830566406,-1.32446289062,0.01220703125,0.031745634973,0.0327124334872,0.025991126895,-0.296630859375,0.966796875,-49.8889160156,0.00121108258511,0.00874143115957,-0.421703272052,0.906690945692,0.105399221182,0.105399221182,0.516851305962,0.283813476562,0.302124023438,-0.448608398438,-0.02197265625,0.005859375,0.97998046875,1,1,1,1,34,16,1,46.0510253906
1561680567027116247,102867,1561680567026964102,gps,38.9795459,117.7863468,4.67399978638,568111.199458,4314800.79294,0.0862935855985,0.0765355527401,0.0596059449017,1.13220214844,-1.32751464844,0.0244140625,0.031745634973,0.0327124334872,0.025991126895,-0.296630859375,0.977783203125,-49.8889160156,0.00125151667135,0.00882835725886,-0.421702703965,0.906690312777,0.104350484908,0.104350484908,0.501576066017,-0.100708007812,0.0823974609375,-0.228881835938,-0.0069580078125,-0.002197265625,0.989135742188,1,1,1,1,34,16,1,46.0510253906
1561680567047248967,102868,1561680567047072088,gps,38.9795461,117.7863465,4.67500019073,568111.173281,4314800.81491,0.0862935855985,0.0765355527401,0.0596059449017,1.123046875,-1.33972167969,0.0274658203125,0.031745634973,0.0327124334872,0.025991126895,-0.296630859375,0.977783203125,-49.8999023438,0.00125236307374,0.00882823723063,-0.421789629872,0.906649878369,0.104350484908,0.104350484908,0.501576066017,-0.0640869140625,0.03662109375,-0.0457763671875,0.003662109375,-0.008056640625,0.996826171875,1,1,1,1,34,16,1,46.0510253906
1561680567066840418,102869,1561680567066640342,gps,38.9795463,117.7863462,4.67500019073,568111.147103,4314800.83688,0.0862935855985,0.0765355527401,0.0596059449017,1.11694335938,-1.34582519531,0.030517578125,0.031745634973,0.0327124334872,0.025991126895,-0.296630859375,0.977783203125,-49.8999023438,0.00125236307374,0.00882823723063,-0.421789629872,0.906649878369,0.104350484908,0.104350484908,0.501576066017,0.119018554688,-0.0274658203125,0.018310546875,0.008056640625,-0.000732421875,1.00231933594,1,1,1,1,34,16,1,46.0510253906
1561680567087817830,102870,1561680567087617017,gps,38.9795465,117.7863459,4.67600011826,568111.120926,4314800.85885,0.0862935855985,0.0765355527401,0.0596059449017,1.11999511719,-1.34887695312,0.03662109375,0.031745634973,0.0327124334872,0.025991126895,-0.296630859375,0.977783203125,-49.8889160156,0.00125151667135,0.00882835725886,-0.421702703965,0.906690312777,0.104350484908,0.104350484908,0.501576066017,-0.0274658203125,-0.100708007812,0.137329101562,-0.0084228515625,0.0113525390625,1.0078125,1,1,1,1,34,16,1,46.0510253906
1561680567107030747,102871,1561680567106787575,gps,38.9795467,117.7863456,4.67700004578,568111.094749,4314800.88082,0.0862935855985,0.0765355527401,0.0596059449017,1.11999511719,-1.34887695312,0.042724609375,0.031745634973,0.0327124334872,0.025991126895,-0.296630859375,0.966796875,-49.8889160156,0.00121108258511,0.00874143115957,-0.421703272052,0.906690945692,0.104350484908,0.104350484908,0.501576066017,-0.265502929688,-0.283813476562,0.338745117188,-0.0054931640625,0.0106201171875,1.01184082031,1,1,1,1,34,16,1,46.0510253906
1561680567126498993,102872,1561680567126284190,gps,38.9795469,117.7863453,4.67700004578,568111.068572,4314800.90279,0.0862935855985,0.0765355527401,0.0596059449017,1.12915039062,-1.3427734375,0.0457763671875,0.031745634973,0.0327124334872,0.025991126895,-0.296630859375,0.955810546875,-49.8889160156,0.00117064848775,0.00865450497992,-0.421703836264,0.906691570274,0.104350484908,0.104350484908,0.501576066017,-0.128173828125,-0.439453125,0.128173828125,-0.0025634765625,-0.0032958984375,1.01037597656,1,1,1,1,34,16,1,46.0510253906
1561680567146754011,102873,1561680567146607032,gps,38.9795471,117.786345,4.6779999733,568111.042395,4314800.92476,0.0862935855985,0.0765355527401,0.0596059449017,1.123046875,-1.3427734375,0.0457763671875,0.031745634973,0.0327124334872,0.025991126895,-0.296630859375,0.94482421875,-49.8779296875,0.00112939296811,0.0085676870393,-0.421617466636,0.906732612757,0.104350484908,0.104350484908,0.501576066017,-0.128173828125,-0.494384765625,0.2197265625,-0.0025634765625,-0.0194091796875,1.00231933594,1,1,1,1,34,16,1,46.0510253906
1561680567167185017,102874,1561680567166948405,gps,38.9795473,117.7863447,4.6779999733,568111.016218,4314800.94673,0.0862935855985,0.0765355527401,0.0596059449017,1.13220214844,-1.33972167969,0.0213623046875,0.031745634973,0.0327124334872,0.025991126895,-0.3076171875,0.94482421875,-49.8559570312,0.00104081045917,0.00860830879937,-0.421442771711,0.906813544179,0.104350484908,0.104350484908,0.501576066017,-0.3662109375,0.0,0.146484375,-0.0263671875,-0.0113525390625,0.991333007812,1,1,1,1,34,16,1,46.0510253906
1561680567187465928,102875,1561680567187324162,gps,38.9795475,117.7863444,4.6779999733,568110.990041,4314800.9687,0.0862935855985,0.0765355527401,0.0596059449017,1.13220214844,-1.35192871094,0.0091552734375,0.031745634973,0.0327124334872,0.025991126895,-0.3076171875,0.94482421875,-49.8559570312,0.00104081045917,0.00860830879937,-0.421442771711,0.906813544179,0.104350484908,0.104350484908,0.501576066017,-0.0823974609375,0.265502929688,0.173950195312,-0.0289306640625,-0.003662109375,1.00048828125,1,1,1,1,34,16,1,46.0510253906
1561680567206932140,102876,1561680567206748402,gps,38.9795478,117.786344,4.6779999733,568110.955106,4314801.00169,0.0862935855985,0.0765355527401,0.0596059449017,1.1474609375,-1.33972167969,0.006103515625,0.031745634973,0.0327124334872,0.025991126895,-0.3076171875,0.94482421875,-49.8559570312,0.00104081045917,0.00860830879937,-0.421442771711,0.906813544179,0.104350484908,0.104350484908,0.501576066017,-0.32958984375,0.338745117188,-0.128173828125,-0.0208740234375,0.0157470703125,1.00268554688,1,1,1,1,34,16,1,46.0510253906
1561680567226509647,102877,1561680567226334732,gps,38.979548,117.7863437,4.67899990082,568110.928929,4314801.02366,0.0862935855985,0.0765355527401,0.0596059449017,1.15966796875,-1.33361816406,0.0030517578125,0.031745634973,0.0327124334872,0.025991126895,-0.3076171875,0.955810546875,-49.8559570312,0.00108121962269,0.00869524663058,-0.421442203218,0.906812931644,0.104350484908,0.104350484908,0.501576066017,-0.540161132812,0.604248046875,-0.421142578125,-0.003662109375,0.0150146484375,0.990234375,1,1,1,1,34,16,1,46.0510253906
1561680567246818421,102878,1561680567246697759,gps,38.9795482,117.7863434,4.67899990082,568110.902752,4314801.04563,0.0862935855985,0.0765355527401,0.0596059449017,1.1474609375,-1.33972167969,0.0152587890625,0.031745634973,0.0327124334872,0.025991126895,-0.318603515625,0.966796875,-49.8669433594,0.00103553508023,0.00882249031161,-0.421527724548,0.906772004844,0.104350484908,0.104350484908,0.501576066017,-0.0823974609375,0.448608398438,-0.393676757812,0.0018310546875,0.00732421875,0.98876953125,1,1,1,1,34,16,1,46.0510253906
1561680567266444434,102879,1561680567266276571,gps,38.9795484,117.7863431,4.67899990082,568110.876574,4314801.0676,0.0862935855985,0.0765355527401,0.0596059449017,1.15356445312,-1.34582519531,0.0091552734375,0.031745634973,0.0327124334872,0.025991126895,-0.318603515625,0.966796875,-49.8669433594,0.00103553508023,0.00882249031161,-0.421527724548,0.906772004844,0.104350484908,0.104350484908,0.501576066017,-0.274658203125,0.631713867188,-0.439453125,0.0120849609375,0.0003662109375,1.0107421875,1,1,1,1,34,16,1,46.0510253906
1561680567287845579,102880,1561680567287596596,gps,38.9795486,117.7863428,4.67999982834,568110.850397,4314801.08957,0.0862935855985,0.0765355527401,0.0596059449017,1.14135742188,-1.3427734375,0.0457763671875,0.031745634973,0.0327124334872,0.025991126895,-0.32958984375,0.966796875,-49.8779296875,0.000949449114342,0.00886281274888,-0.421613810513,0.906731682407,0.104350484908,0.104350484908,0.501576066017,-0.421142578125,-0.091552734375,-0.338745117188,0.012451171875,0.0201416015625,1.0048828125,1,1,1,1,34,16,1,46.0510253906
1561680567306883301,102881,1561680567306726123,gps,38.9795488,117.7863425,4.6810002327,568110.82422,4314801.11154,0.0862935855985,0.0765355527401,0.0596059449017,1.13525390625,-1.35498046875,0.042724609375,0.031745634973,0.0327124334872,0.025991126895,-0.32958984375,0.966796875,-49.8889160156,0.000950298821508,0.00886272168086,-0.421700740387,0.906691256522,0.104350484908,0.104350484908,0.501576066017,-0.439453125,-0.0457763671875,-0.03662109375,0.006591796875,0.0260009765625,1.01110839844,1,1,1,1,34,16,1,46.0510253906
1561680567327496159,102882,1561680567327343902,gps,38.979549,117.7863422,4.68200016022,568110.798043,4314801.13351,0.0862935855985,0.0765355527401,0.0596059449017,1.12915039062,-1.35498046875,0.0518798828125,0.031745634973,0.0327124334872,0.025991126895,-0.340576171875,0.966796875,-49.8889160156,0.00086337088177,0.00890315169219,-0.421699888746,0.906691343464,0.104350484908,0.104350484908,0.501576066017,-0.357055664062,-0.29296875,0.054931640625,-0.00439453125,0.0157470703125,1.01843261719,1,1,1,1,34,16,1,46.0510253906
1561680567346962531,102883,1561680567346825595,gps,38.9795492,117.7863419,4.68200016022,568110.771866,4314801.15548,0.0862935855985,0.0765355527401,0.0596059449017,1.12915039062,-1.35498046875,0.0457763671875,0.031745634973,0.0327124334872,0.025991126895,-0.3515625,0.955810546875,-49.8779296875,0.000735159417359,0.00885672624572,-0.421612709163,0.90673245305,0.104350484908,0.104350484908,0.501576066017,-0.29296875,-0.320434570312,0.173950195312,-0.0084228515625,0.0098876953125,1.00744628906,1,1,1,1,34,16,1,46.0510253906
1561680567366711625,102884,1561680567366578666,gps,38.9795494,117.7863416,4.68300008774,568110.745689,4314801.17745,0.0862935855985,0.0765355527401,0.0596059449017,1.123046875,-1.35192871094,0.0274658203125,0.031745634973,0.0327124334872,0.025991126895,-0.3515625,0.94482421875,-49.8559570312,0.000693051752422,0.00876992944115,-0.421439439476,0.906813876642,0.104350484908,0.104350484908,0.501576066017,-0.18310546875,-0.0732421875,0.311279296875,-0.0142822265625,0.006591796875,0.996826171875,1,1,1,1,34,16,1,46.0510253906
1561680567387712862,102885,1561680567387456784,gps,38.9795496,117.7863413,4.68300008774,568110.719512,4314801.19942,0.0862935855985,0.0765355527401,0.0596059449017,1.13220214844,-1.35803222656,0.0152587890625,0.031745634973,0.0327124334872,0.025991126895,-0.3515625,0.94482421875,-49.8449707031,0.000692210942783,0.00876999584635,-0.421352497847,0.906854277475,0.104350484908,0.104350484908,0.501576066017,0.0091552734375,0.201416015625,0.283813476562,-0.028564453125,0.0205078125,0.97998046875,1,1,1,1,34,16,1,46.0510253906
1561680567407138045,102886,1561680567406969112,gps,38.9795498,117.7863409,4.68300008774,568110.684673,4314801.22132,0.0862935855985,0.0765355527401,0.0596059449017,1.13830566406,-1.35803222656,0.0030517578125,0.031745634973,0.0327124334872,0.025991126895,-0.3515625,0.94482421875,-49.8449707031,0.000692210942783,0.00876999584635,-0.421352497847,0.906854277475,0.104350484908,0.104350484908,0.501576066017,-0.146484375,0.411987304688,0.347900390625,-0.018310546875,0.0303955078125,0.974853515625,1,1,1,1,34,16,1,46.0510253906
1561680567427623045,102887,1561680567427448301,gps,38.97955,117.7863406,4.68300008774,568110.658495,4314801.24329,0.0862935855985,0.0765355527401,0.0596059449017,1.13830566406,-1.35192871094,0.018310546875,0.031745634973,0.0327124334872,0.025991126895,-0.362548828125,0.955810546875,-49.833984375,0.000644815467905,0.00889739575508,-0.421264099536,0.906894138808,0.104350484908,0.104350484908,0.501576066017,0.302124023438,0.146484375,0.192260742188,-0.008056640625,0.0208740234375,0.976318359375,1,1,1,1,34,16,1,46.0021972656
1561680567447125482,102888,1561680567446965362,gps,38.9795502,117.7863403,4.68400001526,568110.632318,4314801.26526,0.0862935855985,0.0765355527401,0.0596059449017,1.13525390625,-1.35192871094,0.0213623046875,0.031745634973,0.0327124334872,0.025991126895,-0.3515625,0.955810546875,-49.833984375,0.000731762851407,0.00885700752455,-0.421264950627,0.906894072819,0.104350484908,0.104350484908,0.501576066017,0.47607421875,0.10986328125,0.238037109375,0.0069580078125,0.0216064453125,0.986938476562,1,1,1,1,34,16,1,46.0021972656
1561680567467186981,102889,1561680567467045350,gps,38.9795505,117.78634,4.68400001526,568110.606045,4314801.29833,0.0862935855985,0.0765355527401,0.0596059449017,1.14440917969,-1.3427734375,0.030517578125,0.031745634973,0.0327124334872,0.025991126895,-0.3515625,0.955810546875,-49.833984375,0.000731762851407,0.00885700752455,-0.421264950627,0.906894072819,0.104350484908,0.104350484908,0.501576066017,0.192260742188,0.0274658203125,0.10986328125,0.0087890625,0.021240234375,0.995361328125,1,1,1,1,34,16,1,46.0021972656
1561680567487224507,102890,1561680567486928911,gps,38.9795507,117.7863397,4.68499994278,568110.579868,4314801.3203,0.0862935855985,0.0765355527401,0.0596059449017,1.14440917969,-1.35192871094,0.0274658203125,0.031745634973,0.0327124334872,0.025991126895,-0.3515625,0.955810546875,-49.833984375,0.000731762851407,0.00885700752455,-0.421264950627,0.906894072819,0.104350484908,0.104350484908,0.501576066017,0.173950195312,-0.018310546875,0.228881835938,0.0113525390625,0.008056640625,0.988037109375,1,1,1,1,34,16,1,46.0021972656
1561680567506827831,102891,1561680567506695545,gps,38.9795509,117.7863394,4.68499994278,568110.553691,4314801.34227,0.0862935855985,0.0765355527401,0.0596059449017,1.13220214844,-1.35192871094,0.0457763671875,0.031745634973,0.0327124334872,0.025991126895,-0.340576171875,0.94482421875,-49.8229980469,0.000777480610425,0.00872974838184,-0.421179441862,0.906934983761,0.104350484908,0.104350484908,0.501576066017,0.54931640625,-0.430297851562,0.320434570312,-0.0003662109375,-0.0003662109375,0.995727539062,1,1,1,1,34,16,1,46.0021972656
1561680567526953606,102892,1561680567526765420,gps,38.9795511,117.7863391,4.6859998703,568110.527514,4314801.36424,0.0862935855985,0.0765355527401,0.0596059449017,1.13525390625,-1.35498046875,0.03662109375,0.031745634973,0.0327124334872,0.025991126895,-0.32958984375,0.94482421875,-49.8120117188,0.000863598822558,0.00868945110496,-0.42109332365,0.906975281038,0.104350484908,0.104350484908,0.501576066017,0.274658203125,-0.375366210938,0.411987304688,-0.0091552734375,0.0029296875,1.0078125,1,1,1,1,34,16,1,46.0021972656
1561680567547225607,102893,1561680567546984453,gps,38.9795513,117.7863388,4.68699979782,568110.501337,4314801.38621,0.0862935855985,0.0765355527401,0.0596059449017,1.13830566406,-1.35498046875,0.0335693359375,0.031745634973,0.0327124334872,0.025991126895,-0.32958984375,0.933837890625,-49.8120117188,0.000823222877567,0.00860249781411,-0.421093904711,0.906975877712,0.104350484908,0.104350484908,0.501576066017,0.2197265625,-0.32958984375,0.357055664062,-0.009521484375,0.0054931640625,0.987670898438,1,1,1,1,34,16,1,46.0021972656
1561680567567700645,102894,1561680567567519490,gps,38.9795515,117.7863384,4.68699979782,568110.466498,4314801.4081,0.0862935855985,0.0765355527401,0.0596059449017,1.13830566406,-1.33972167969,0.0274658203125,0.031745634973,0.0327124334872,0.025991126895,-0.32958984375,0.9228515625,-49.8120117188,0.00078284692501,0.00851554444419,-0.4210944819,0.906976466049,0.104350484908,0.104350484908,0.501576066017,0.393676757812,-0.457763671875,0.10986328125,-0.013916015625,0.0230712890625,0.992797851562,1,1,1,1,34,16,1,46.0021972656
1561680567586436459,102895,1561680567586254079,gps,38.9795517,117.7863381,4.68699979782,568110.440321,4314801.43007,0.0862935855985,0.0765355527401,0.0596059449017,1.1474609375,-1.3427734375,0.0152587890625,0.031745634973,0.0327124334872,0.025991126895,-0.318603515625,0.911865234375,-49.8120117188,0.000829426296942,0.00838821897453,-0.421095861365,0.906976970697,0.104350484908,0.104350484908,0.501576066017,0.311279296875,-0.137329101562,0.018310546875,-0.016845703125,0.028564453125,0.983642578125,1,1,1,1,34,16,1,46.0021972656
1561680567607232828,102896,1561680567607050489,gps,38.9795519,117.7863378,4.68699979782,568110.414144,4314801.45204,0.0862935855985,0.0765355527401,0.0596059449017,1.1474609375,-1.34582519531,0.018310546875,0.031745634973,0.0327124334872,0.025991126895,-0.318603515625,0.911865234375,-49.8120117188,0.000829426296942,0.00838821897453,-0.421095861365,0.906976970697,0.104350484908,0.104350484908,0.501576066017,0.384521484375,-0.119018554688,0.0,-0.0157470703125,0.0194091796875,0.997192382812,1,1,1,1,34,16,1,46.0021972656
1561680567627439160,102897,1561680567627237989,gps,38.9795521,117.7863375,4.68800020218,568110.387966,4314801.47401,0.0862935855985,0.0765355527401,0.0596059449017,1.15051269531,-1.34582519531,0.018310546875,0.031745634973,0.0327124334872,0.025991126895,-0.3076171875,0.911865234375,-49.8120117188,0.000916381621003,0.00834784687597,-0.42109666364,0.906976887009,0.104350484908,0.104350484908,0.501576066017,0.375366210938,0.0091552734375,-0.0732421875,-0.0098876953125,0.0076904296875,1.0107421875,1,1,1,1,34,21,1,46.0021972656
1561680567646687192,102898,1561680567646366608,gps,38.9795523,117.7863372,4.68800020218,568110.361789,4314801.49598,0.0862935855985,0.0765355527401,0.0596059449017,1.14135742188,-1.35498046875,0.0244140625,0.031745634973,0.0327124334872,0.025991126895,-0.3076171875,0.911865234375,-49.8120117188,0.000916381621003,0.00834784687597,-0.42109666364,0.906976887009,0.104350484908,0.104350484908,0.501576066017,0.119018554688,0.0091552734375,0.29296875,-0.0186767578125,-0.005859375,1.02429199219,1,1,1,1,34,21,1,46.0021972656
1561680567667152169,102899,1561680567666949296,gps,38.9795525,117.7863369,4.6890001297,568110.335612,4314801.51795,0.0862935855985,0.0765355527401,0.0596059449017,1.12915039062,-1.36108398438,0.0335693359375,0.031745634973,0.0327124334872,0.025991126895,-0.3076171875,0.90087890625,-49.8010253906,0.000875213757538,0.00826097719075,-0.421010259105,0.907017834436,0.104350484908,0.104350484908,0.501576066017,0.03662109375,-0.10986328125,0.595092773438,-0.0087890625,-0.0274658203125,1.0224609375,1,1,1,1,34,21,1,46.0021972656
1561680567692017714,102900,1561680567687204720,gps,38.9795527,117.7863366,4.6890001297,568110.309435,4314801.53992,0.0862935855985,0.0765355527401,0.0596059449017,1.12609863281,-1.36413574219,0.030517578125,0.031745634973,0.0327124334872,0.025991126895,-0.296630859375,0.911865234375,-49.7900390625,0.00100174397988,0.0083076669354,-0.420923543682,0.907057522737,0.104350484908,0.104350484908,0.501576066017,0.018310546875,-0.0274658203125,0.650024414062,-0.0146484375,-0.024169921875,1.01000976562,1,1,1,1,34,21,1,46.0021972656
1561680567706800994,102901,1561680567706660408,gps,38.9795529,117.7863362,4.69000005722,568110.274596,4314801.56182,0.0862935855985,0.0765355527401,0.0596059449017,1.12609863281,-1.36413574219,0.030517578125,0.031745634973,0.0327124334872,0.025991126895,-0.296630859375,0.911865234375,-49.7790527344,0.00100094748769,0.00830776293822,-0.420836578697,0.907097874107,0.104350484908,0.104350484908,0.501576066017,0.210571289062,0.054931640625,0.595092773438,-0.0062255859375,-0.009521484375,1.01879882812,1,1,1,1,34,21,1,46.0021972656
1561680567727104886,102902,1561680567726909184,gps,38.9795531,117.7863359,4.69000005722,568110.248419,4314801.58379,0.0862935855985,0.0765355527401,0.0596059449017,1.14440917969,-1.34887695312,0.030517578125,0.031745634973,0.0327124334872,0.025991126895,-0.296630859375,0.911865234375,-49.7680664062,0.00100015098629,0.00830785886468,-0.420749609844,0.90713821714,0.104350484908,0.104350484908,0.501576066017,-0.0274658203125,0.0274658203125,0.29296875,-0.0087890625,0.017578125,1.01220703125,1,1,1,1,34,21,1,46.0021972656
1561680567746539050,102903,1561680567746354985,gps,38.9795533,117.7863356,4.69099998474,568110.222242,4314801.60576,0.0862935855985,0.0765355527401,0.0596059449017,1.15966796875,-1.33666992188,0.03662109375,0.031745634973,0.0327124334872,0.025991126895,-0.296630859375,0.911865234375,-49.7570800781,0.000999354475705,0.00830795471477,-0.420662637123,0.907178551834,0.104350484908,0.104350484908,0.501576066017,-0.2197265625,-0.0732421875,-0.018310546875,-0.000732421875,0.0146484375,1.03454589844,1,1,1,1,34,21,1,46.0021972656
1561680567766441761,102904,1561680567766227367,gps,38.9795536,117.7863354,4.69099998474,568110.204631,4314801.6389,0.0907179415226,0.0796590223908,0.0602049976587,1.15661621094,-1.32751464844,0.0335693359375,0.031745634973,0.0327124334872,0.025991126895,-0.296630859375,0.90087890625,-49.7241210938,0.00095665579288,0.00822125717873,-0.420402239755,0.907300089579,0.104350484908,0.104350484908,0.501576066017,-0.119018554688,-0.119018554688,-0.091552734375,-0.005859375,0.002197265625,1.04187011719,1,1,1,1,34,21,1,46.0021972656
1561680567787929776,102905,1561680567787798429,gps,38.9795538,117.7863351,4.69099998474,568110.178453,4314801.66087,0.0907179415226,0.0796590223908,0.0602049976587,1.15661621094,-1.33972167969,0.030517578125,0.0308074112982,0.0314297601581,0.0252229738981,-0.3076171875,0.90087890625,-49.7241210938,0.000869669481976,0.00826156270082,-0.420401449619,0.907300177127,0.104350484908,0.104350484908,0.501576066017,-0.228881835938,0.0640869140625,-0.10986328125,-0.0113525390625,-0.0062255859375,1.00598144531,1,1,1,1,34,21,1,46.0021972656
1561680567807400887,102906,1561680567807213118,gps,38.979554,117.7863347,4.69199991226,568110.143614,4314801.68277,0.0907179415226,0.0796590223908,0.0602049976587,1.15051269531,-1.35192871094,0.0244140625,0.0308074112982,0.0314297601581,0.0252229738981,-0.3076171875,0.889892578125,-49.7241210938,0.000829360322232,0.0081745780493,-0.420401998086,0.907300748617,0.105399221182,0.105399221182,0.477113902569,-0.146484375,0.192260742188,0.0,-0.0267333984375,-0.0018310546875,0.992065429688,1,1,1,1,34,21,1,46.0021972656
1561680567826890968,102907,1561680567826655963,gps,38.9795542,117.7863344,4.69199991226,568110.117437,4314801.70474,0.0907179415226,0.0796590223908,0.0602049976587,1.14440917969,-1.36108398438,0.0152587890625,0.0308074112982,0.0314297601581,0.0252229738981,-0.3076171875,0.889892578125,-49.7131347656,0.000828576590567,0.00817465752566,-0.420315009784,0.907341049984,0.105399221182,0.105399221182,0.477113902569,-0.411987304688,0.347900390625,0.210571289062,-0.015380859375,-0.00732421875,0.996826171875,1,1,1,1,34,21,1,46.0021972656
1561680567847549091,102908,1561680567847352871,gps,38.9795544,117.7863341,4.69199991226,568110.09126,4314801.72671,0.0907179415226,0.0796590223908,0.0602049976587,1.15356445312,-1.35498046875,0.0213623046875,0.0308074112982,0.0314297601581,0.0252229738981,-0.318603515625,0.90087890625,-49.7131347656,0.000781887227841,0.00830194314762,-0.420313667365,0.907340557574,0.105399221182,0.105399221182,0.477113902569,-0.457763671875,0.228881835938,0.0,-0.0010986328125,-0.0010986328125,0.984741210938,1,1,1,1,34,21,1,46.0021972656
1561680567866816430,102909,1561680567866667334,gps,38.9795546,117.7863338,4.69199991226,568110.065083,4314801.74868,0.0907179415226,0.0796590223908,0.0602049976587,1.1474609375,-1.35498046875,0.0274658203125,0.0308074112982,0.0314297601581,0.0252229738981,-0.318603515625,0.90087890625,-49.7131347656,0.000781887227841,0.00830194314762,-0.420313667365,0.907340557574,0.105399221182,0.105399221182,0.477113902569,-0.25634765625,0.100708007812,0.0274658203125,-0.003662109375,0.031494140625,0.9873046875,1,1,1,1,34,21,1,46.0021972656
1561680567888097050,102910,1561680567887781055,gps,38.9795548,117.7863335,4.69299983978,568110.038906,4314801.77065,0.0907179415226,0.0796590223908,0.0602049976587,1.15966796875,-1.34582519531,0.030517578125,0.0308074112982,0.0314297601581,0.0252229738981,-0.32958984375,0.90087890625,-49.7131347656,0.000694897037919,0.00834224017757,-0.420312869495,0.907340628366,0.105399221182,0.105399221182,0.477113902569,-0.311279296875,0.0274658203125,-0.2197265625,0.0,0.029296875,0.997924804688,1,1,1,1,34,21,1,46.0021972656
1561680567906964685,102911,1561680567906782071,gps,38.9795551,117.7863332,4.69299983978,568110.012633,4314801.80372,0.0907179415226,0.0796590223908,0.0602049976587,1.16577148438,-1.34887695312,0.0274658203125,0.0308074112982,0.0314297601581,0.0252229738981,-0.32958984375,0.90087890625,-49.7131347656,0.000694897037919,0.00834224017757,-0.420312869495,0.907340628366,0.105399221182,0.105399221182,0.477113902569,-0.320434570312,0.0823974609375,-0.247192382812,0.00439453125,0.01171875,0.996826171875,1,1,1,1,34,21,1,46.0021972656
1561680567927172192,102912,1561680567926913654,gps,38.9795553,117.7863329,4.6939997673,568109.986456,4314801.82569,0.0907179415226,0.0796590223908,0.0602049976587,1.15661621094,-1.35803222656,0.030517578125,0.0308074112982,0.0314297601581,0.0252229738981,-0.32958984375,0.889892578125,-49.7131347656,0.000654596109059,0.00825525176862,-0.420313434586,0.907341192181,0.105399221182,0.105399221182,0.477113902569,-0.3662109375,-0.0732421875,-0.018310546875,0.0029296875,-0.013916015625,0.99169921875,1,1,1,1,34,21,1,46.0021972656
1561680567947467533,102913,1561680567947292938,gps,38.9795555,117.7863325,4.6939997673,568109.951617,4314801.84758,0.0907179415226,0.0796590223908,0.0602049976587,1.13830566406,-1.37329101562,0.0274658203125,0.0308074112982,0.0314297601581,0.0252229738981,-0.340576171875,0.889892578125,-49.7131347656,0.00056760585888,0.00829554877646,-0.420312641192,0.90734125077,0.105399221182,0.105399221182,0.477113902569,-0.054931640625,-0.137329101562,0.338745117188,-0.0164794921875,-0.022705078125,0.995361328125,1,1,1,1,34,21,1,46.0021972656
1561680567966742109,102914,1561680567966545313,gps,38.9795557,117.7863322,4.6939997673,568109.92544,4314801.86955,0.0907179415226,0.0796590223908,0.0602049976587,1.12609863281,-1.37023925781,0.030517578125,0.0308074112982,0.0314297601581,0.0252229738981,-0.340576171875,0.87890625,-49.7131347656,0.000527304870933,0.00820856034584,-0.420313210761,0.90734180238,0.105399221182,0.105399221182,0.477113902569,-0.119018554688,-0.283813476562,0.576782226562,-0.0135498046875,0.0029296875,0.978515625,1,1,1,1,34,21,1,46.0021972656
1561680567986680799,102915,1561680567986568569,gps,38.9795559,117.7863319,4.69500017166,568109.899263,4314801.89152,0.0907179415226,0.0796590223908,0.0602049976587,1.13830566406,-1.3671875,0.0213623046875,0.0308074112982,0.0314297601581,0.0252229738981,-0.340576171875,0.87890625,-49.7021484375,0.000526517882644,0.00820861086284,-0.420226218523,0.907382095235,0.105399221182,0.105399221182,0.477113902569,-0.29296875,-0.128173828125,0.5126953125,-0.01025390625,0.0245361328125,0.975952148438,1,1,1,1,34,21,1,46.0021972656
1561680568006893522,102916,1561680568006678028,gps,38.9795561,117.7863316,4.69500017166,568109.873085,4314801.91349,0.0907179415226,0.0796590223908,0.0602049976587,1.15356445312,-1.36108398438,0.01220703125,0.0308074112982,0.0314297601581,0.0252229738981,-0.340576171875,0.867919921875,-49.6911621094,0.000485446577299,0.00812166507229,-0.420139788024,0.907422923128,0.105399221182,0.105399221182,0.477113902569,-0.320434570312,0.0457763671875,0.311279296875,-0.005859375,0.012451171875,0.994262695312,1,1,1,1,34,21,1,46.0021972656
1561680568026431543,102917,1561680568026305534,gps,38.9795563,117.7863313,4.69500017166,568109.846908,4314801.93546,0.0907179415226,0.0796590223908,0.0602049976587,1.16577148438,-1.35803222656,0.006103515625,0.0308074112982,0.0314297601581,0.0252229738981,-0.340576171875,0.867919921875,-49.6911621094,0.000485446577299,0.00812166507229,-0.420139788024,0.907422923128,0.105399221182,0.105399221182,0.477113902569,0.03662109375,0.119018554688,0.0640869140625,-0.0135498046875,0.0084228515625,0.989501953125,1,1,1,1,34,21,1,46.0021972656
1561680568046676106,102918,1561680568046514836,gps,38.9795565,117.7863309,4.69500017166,568109.812069,4314801.95736,0.0907179415226,0.0796590223908,0.0602049976587,1.171875,-1.34582519531,0.0213623046875,0.0308074112982,0.0314297601581,0.0252229738981,-0.340576171875,0.85693359375,-49.6911621094,0.000445162260621,0.00803466876554,-0.420140349762,0.907423458166,0.105399221182,0.105399221182,0.477113902569,-0.0640869140625,-0.0823974609375,-0.146484375,-0.01904296875,0.029296875,0.998657226562,1,1,1,1,34,21,1,46.0021972656
1561680568067136984,102919,1561680568066960613,gps,38.9795567,117.7863306,4.69600009918,568109.785892,4314801.97933,0.0907179415226,0.0796590223908,0.0602049976587,1.16577148438,-1.34582519531,0.0335693359375,0.0308074112982,0.0314297601581,0.0252229738981,-0.3515625,0.85693359375,-49.6911621094,0.000358164124252,0.0080749491801,-0.420139577517,0.907423496675,0.105399221182,0.105399221182,0.477113902569,-0.0823974609375,-0.29296875,-0.128173828125,-0.009521484375,0.0201416015625,0.984375,1,1,1,1,34,21,1,46.0021972656
1561680568091981751,102920,1561680568086970067,gps,38.9795569,117.7863303,4.69600009918,568109.759715,4314802.0013,0.0907179415226,0.0796590223908,0.0602049976587,1.15966796875,-1.35803222656,0.0152587890625,0.0308074112982,0.0314297601581,0.0252229738981,-0.3515625,0.85693359375,-49.6911621094,0.000358164124252,0.0080749491801,-0.420139577517,0.907423496675,0.105399221182,0.105399221182,0.477113902569,0.146484375,0.128173828125,-0.0274658203125,-0.0135498046875,0.0091552734375,0.986206054688,1,1,1,1,34,21,1,46.0021972656
1561680568106923394,102921,1561680568106731311,gps,38.9795571,117.78633,4.69600009918,568109.733538,4314802.02327,0.0907179415226,0.0796590223908,0.0602049976587,1.14440917969,-1.36108398438,0.03662109375,0.0308074112982,0.0314297601581,0.0252229738981,-0.340576171875,0.85693359375,-49.6911621094,0.000445162260621,0.00803466876554,-0.420140349762,0.907423458166,0.105399221182,0.105399221182,0.477113902569,0.146484375,-0.32958984375,0.210571289062,0.00439453125,-0.0047607421875,1.00671386719,1,1,1,1,34,21,1,46.0021972656
1561680568127422800,102922,1561680568127241226,gps,38.9795573,117.7863297,4.6970000267,568109.707361,4314802.04524,0.0907179415226,0.0796590223908,0.0602049976587,1.14135742188,-1.3671875,0.0335693359375,0.0308074112982,0.0314297601581,0.0252229738981,-0.340576171875,0.845947265625,-49.6801757812,0.000404115964445,0.0079477111656,-0.420053907523,0.907464261198,0.105399221182,0.105399221182,0.477113902569,0.265502929688,-0.384521484375,0.283813476562,0.006591796875,-0.005859375,1.00708007812,1,1,1,1,34,21,1,46.0021972656
1561680568146600347,102923,1561680568146381935,gps,38.9795575,117.7863294,4.6970000267,568109.681184,4314802.06721,0.0907179415226,0.0796590223908,0.0602049976587,1.13830566406,-1.37023925781,0.042724609375,0.0308074112982,0.0314297601581,0.0252229738981,-0.340576171875,0.8349609375,-49.6801757812,0.000363839980819,0.00786071085013,-0.420054461489,0.907464779608,0.105399221182,0.105399221182,0.477113902569,0.192260742188,-0.567626953125,0.466918945312,0.005126953125,0.0010986328125,1.02575683594,1,1,1,1,34,21,1,46.0021972656
1561680568167139080,102924,1561680568166947812,gps,38.9795577,117.786329,4.69799995422,568109.646345,4314802.0891,0.0907179415226,0.0796590223908,0.0602049976587,1.14440917969,-1.36413574219,0.048828125,0.0308074112982,0.0314297601581,0.0252229738981,-0.340576171875,0.823974609375,-49.7021484375,0.000325054578203,0.00777364827689,-0.42022900816,0.907384728455,0.105399221182,0.105399221182,0.477113902569,0.0,-0.732421875,0.421142578125,-0.0087890625,0.003662109375,1.02136230469,1,1,1,1,34,21,1,46.0021972656
1561680568186893639,102925,1561680568186679739,gps,38.9795579,117.7863287,4.69799995422,568109.620168,4314802.11108,0.0907179415226,0.0796590223908,0.0602049976587,1.15051269531,-1.3671875,0.0335693359375,0.0308074112982,0.0314297601581,0.0252229738981,-0.340576171875,0.802001953125,-49.6911621094,0.000243740623258,0.00759968614,-0.420143100528,0.907426008245,0.105399221182,0.105399221182,0.477113902569,0.018310546875,-0.47607421875,0.411987304688,-0.0164794921875,0.0040283203125,1.02758789062,1,1,1,1,34,21,1,46.0021972656
1561680568207312265,102926,1561680568207142222,gps,38.9795581,117.7863284,4.69899988174,568109.59399,4314802.13305,0.0907179415226,0.0796590223908,0.0602049976587,1.15661621094,-1.35803222656,0.0244140625,0.0308074112982,0.0314297601581,0.0252229738981,-0.340576171875,0.791015625,-49.6911621094,0.000203456287583,0.00751268940213,-0.420143639096,0.907426493238,0.105399221182,0.105399221182,0.477113902569,0.03662109375,-0.320434570312,0.265502929688,-0.0325927734375,0.0025634765625,1.00048828125,1,1,1,1,34,21,1,46.0021972656
1561680568226607292,102927,1561680568226352727,gps,38.9795583,117.7863281,4.69899988174,568109.567813,4314802.15502,0.0907179415226,0.0796590223908,0.0602049976587,1.16882324219,-1.35803222656,0.0030517578125,0.0308074112982,0.0314297601581,0.0252229738981,-0.340576171875,0.791015625,-49.6801757812,0.000202736016573,0.00751270887373,-0.420056638739,0.907466769835,0.105399221182,0.105399221182,0.477113902569,-0.100708007812,0.155639648438,0.137329101562,-0.0399169921875,0.0113525390625,1.0078125,1,1,1,1,34,21,1,46.0021972656
1561680568246914749,102928,1561680568246698012,gps,38.9795585,117.7863277,4.69899988174,568109.532974,4314802.17691,0.0907179415226,0.0796590223908,0.0602049976587,1.16577148438,-1.36413574219,-0.0,0.0308074112982,0.0314297601581,0.0252229738981,-0.3515625,0.791015625,-49.6801757812,0.000115733728864,0.007552981265,-0.420055916537,0.907466785101,0.105399221182,0.105399221182,0.477113902569,-0.164794921875,0.421142578125,0.228881835938,-0.0281982421875,0.0084228515625,0.997192382812,1,1,1,1,34,21,1,46.0021972656
1561680568267437212,102929,1561680568267139250,gps,38.9795587,117.7863274,4.69899988174,568109.506797,4314802.19888,0.0907179415226,0.0796590223908,0.0602049976587,1.15051269531,-1.37329101562,0.0030517578125,0.0308074112982,0.0314297601581,0.0252229738981,-0.3515625,0.791015625,-49.6691894531,0.000115009595324,0.00755299232612,-0.419968912318,0.907507053287,0.105399221182,0.105399221182,0.477113902569,0.100708007812,0.430297851562,0.430297851562,-0.0172119140625,0.000732421875,1.01037597656,1,1,1,1,34,21,1,46.0021972656
1561680568287393252,102930,1561680568287177552,gps,38.979559,117.7863271,4.69899988174,568109.480524,4314802.23195,0.0907179415226,0.0796590223908,0.0602049976587,1.15051269531,-1.36413574219,0.0152587890625,0.0308074112982,0.0314297601581,0.0252229738981,-0.3515625,0.802001953125,-49.6691894531,0.000155277295166,0.00763999673479,-0.419968365502,0.907506572051,0.105399221182,0.105399221182,0.477113902569,0.018310546875,0.357055664062,0.283813476562,-0.006591796875,-0.002197265625,1.001953125,1,1,1,1,34,21,1,46.0021972656
1561680568307497625,102931,1561680568307348308,gps,38.9795592,117.7863268,4.69899988174,568109.454347,4314802.25392,0.0907179415226,0.0796590223908,0.0602049976587,1.1474609375,-1.36413574219,0.030517578125,0.0308074112982,0.0314297601581,0.0252229738981,-0.3515625,0.802001953125,-49.658203125,0.00015454481894,0.0076400115867,-0.419881357469,0.907546831843,0.105399221182,0.105399221182,0.477113902569,-0.18310546875,0.238037109375,0.347900390625,-0.00732421875,0.0010986328125,1.02465820312,1,1,1,1,34,21,1,46.0021972656
1561680568326813779,102932,1561680568326587366,gps,38.9795594,117.7863265,4.69899988174,568109.42817,4314802.27589,0.0907179415226,0.0796590223908,0.0602049976587,1.15051269531,-1.36108398438,0.03662109375,0.0308074112982,0.0314297601581,0.0252229738981,-0.3515625,0.802001953125,-49.658203125,0.00015454481894,0.0076400115867,-0.419881357469,0.907546831843,0.105399221182,0.105399221182,0.477113902569,0.100708007812,0.128173828125,0.173950195312,0.0062255859375,0.0062255859375,1.03015136719,1,1,1,1,34,21,1,46.0021972656
1561680568346909897,102933,1561680568346738118,gps,38.9795596,117.7863262,4.69999980927,568109.401993,4314802.29786,0.0907179415226,0.0796590223908,0.0602049976587,1.15661621094,-1.35192871094,0.054931640625,0.0308074112982,0.0314297601581,0.0252229738981,-0.3515625,0.802001953125,-49.658203125,0.00015454481894,0.0076400115867,-0.419881357469,0.907546831843,0.105399221182,0.105399221182,0.477113902569,0.018310546875,-0.210571289062,0.018310546875,0.005859375,0.009521484375,1.01477050781,1,1,1,1,34,21,1,46.0021972656
1561680568367438882,102934,1561680568367252461,gps,38.9795598,117.7863258,4.69999980927,568109.367154,4314802.31975,0.0907179415226,0.0796590223908,0.0602049976587,1.16882324219,-1.35498046875,0.0396728515625,0.0308074112982,0.0314297601581,0.0252229738981,-0.3515625,0.791015625,-49.6691894531,0.000115009595324,0.00755299232612,-0.419968912318,0.907507053287,0.105399221182,0.105399221182,0.477113902569,-0.03662109375,-0.10986328125,-0.192260742188,-0.0069580078125,0.015380859375,1.02319335938,1,1,1,1,34,21,1,46.0021972656
1561680568392158221,102935,1561680568391876863,gps,38.97956,117.7863255,4.70100021362,568109.340977,4314802.34173,0.0907179415226,0.0796590223908,0.0602049976587,1.15966796875,-1.35498046875,0.048828125,0.0308074112982,0.0314297601581,0.0252229738981,-0.3515625,0.791015625,-49.6691894531,0.000115009595324,0.00755299232612,-0.419968912318,0.907507053287,0.105399221182,0.105399221182,0.477113902569,-0.018310546875,-0.320434570312,-0.091552734375,-0.0274658203125,0.0054931640625,1.01623535156,1,1,1,1,34,21,1,46.0021972656
1561680568406845550,102936,1561680568406664549,gps,38.9795602,117.7863252,4.70100021362,568109.3148,4314802.3637,0.0907179415226,0.0796590223908,0.0602049976587,1.1474609375,-1.37023925781,0.0274658203125,0.0308074112982,0.0314297601581,0.0252229738981,-0.3515625,0.780029296875,-49.6691894531,7.47418944246e-05,0.00746598784802,-0.419969455274,0.907507526181,0.105399221182,0.105399221182,0.477113902569,-0.0732421875,-0.0274658203125,0.265502929688,-0.0377197265625,-0.0205078125,1.00341796875,1,1,1,1,34,23,1,46.0021972656
1561680568427368262,102937,1561680568427198510,gps,38.9795604,117.7863249,4.70200014114,568109.288623,4314802.38567,0.0907179415226,0.0796590223908,0.0602049976587,1.14440917969,-1.37939453125,0.006103515625,0.0308074112982,0.0314297601581,0.0252229738981,-0.362548828125,0.780029296875,-49.658203125,-1.29839529906e-05,0.00750625067057,-0.419881729427,0.907547789004,0.105399221182,0.105399221182,0.477113902569,-0.430297851562,0.3662109375,0.521850585938,-0.038818359375,-0.0098876953125,0.984375,1,1,1,1,34,23,1,46.0021972656
1561680568446542034,102938,1561680568446382933,gps,38.9795606,117.7863246,4.70200014114,568109.262445,4314802.40764,0.0907179415226,0.0796590223908,0.0602049976587,1.14440917969,-1.37939453125,-0.0030517578125,0.0308074112982,0.0314297601581,0.0252229738981,-0.362548828125,0.791015625,-49.6472167969,2.65474567228e-05,0.00759326153653,-0.419794166235,0.90758757135,0.105399221182,0.105399221182,0.477113902569,-0.247192382812,0.613403320312,0.485229492188,-0.035888671875,0.0205078125,0.964599609375,1,1,1,1,34,23,1,46.0021972656
1561680568466715666,102939,1561680568466542851,gps,38.9795608,117.7863243,4.70100021362,568109.236268,4314802.42961,0.0907179415226,0.0796590223908,0.0602049976587,1.15356445312,-1.3671875,-0.0030517578125,0.0308074112982,0.0314297601581,0.0252229738981,-0.37353515625,0.802001953125,-49.6472167969,-2.02153041055e-05,0.00772052078506,-0.419792872903,0.907587096102,0.105399221182,0.105399221182,0.477113902569,-0.146484375,0.613403320312,0.274658203125,-0.013916015625,0.03369140625,0.953979492188,1,1,1,1,34,23,1,46.0021972656
1561680568486551756,102940,1561680568486439247,gps,38.979561,117.7863239,4.70200014114,568109.201429,4314802.4515,0.0907179415226,0.0796590223908,0.0602049976587,1.15966796875,-1.35498046875,-0.0,0.0308074112982,0.0314297601581,0.0252229738981,-0.37353515625,0.81298828125,-49.6362304688,1.92872659347e-05,0.007807534621,-0.41970528993,0.907626857049,0.105399221182,0.105399221182,0.477113902569,-0.247192382812,0.47607421875,0.173950195312,-0.006591796875,0.0186767578125,0.969360351562,1,1,1,1,34,23,1,46.0021972656
1561680568507050858,102941,1561680568506818575,gps,38.9795612,117.7863236,4.70200014114,568109.175252,4314802.47347,0.0907179415226,0.0796590223908,0.0602049976587,1.15966796875,-1.34582519531,0.0213623046875,0.0308074112982,0.0314297601581,0.0252229738981,-0.37353515625,0.81298828125,-49.6362304688,1.92872659347e-05,0.007807534621,-0.41970528993,0.907626857049,0.105399221182,0.105399221182,0.477113902569,-0.137329101562,0.0823974609375,0.0274658203125,0.0069580078125,-0.0062255859375,0.984741210938,1,1,1,1,34,23,1,46.0021972656
1561680568527582340,102942,1561680568527322618,gps,38.9795614,117.7863233,4.70300006866,568109.149075,4314802.49544,0.0907179415226,0.0796590223908,0.0602049976587,1.1474609375,-1.35192871094,0.03662109375,0.0308074112982,0.0314297601581,0.0252229738981,-0.37353515625,0.81298828125,-49.6362304688,1.92872659347e-05,0.007807534621,-0.41970528993,0.907626857049,0.105399221182,0.105399221182,0.477113902569,-0.0274658203125,-0.247192382812,0.155639648438,0.013916015625,-0.0076904296875,0.98876953125,1,1,1,1,34,23,1,46.0021972656
1561680568546714996,102943,1561680568546566268,gps,38.9795617,117.786323,4.70300006866,568109.122802,4314802.52851,0.0953691676259,0.0837432220578,0.0608100667596,1.15051269531,-1.34887695312,0.0457763671875,0.0308074112982,0.0314297601581,0.0252229738981,-0.37353515625,0.802001953125,-49.6362304688,-2.09554996712e-05,0.00772051881146,-0.419705857151,0.907627339068,0.105399221182,0.105399221182,0.477113902569,-0.091552734375,-0.494384765625,0.0732421875,0.005126953125,-0.000732421875,0.9990234375,1,1,1,1,34,23,1,46.0021972656
1561680568567043775,102944,1561680568566814856,gps,38.9795619,117.7863227,4.70300006866,568109.096625,4314802.55048,0.0953691676259,0.0837432220578,0.0608100667596,1.1474609375,-1.34582519531,0.054931640625,0.0323869399726,0.0330411978066,0.0278757009655,-0.37353515625,0.780029296875,-49.6362304688,-0.000101441029935,0.0075464869803,-0.419706980018,0.907628278079,0.105399221182,0.105399221182,0.477113902569,-0.137329101562,-0.98876953125,0.03662109375,-0.0098876953125,0.005859375,0.993530273438,1,1,1,1,34,23,1,46.0021972656
1561680568586978642,102945,1561680568586850029,gps,38.9795621,117.7863224,4.70399999619,568109.070448,4314802.57245,0.0953691676259,0.0837432220578,0.0608100667596,1.1474609375,-1.35192871094,0.0396728515625,0.0323869399726,0.0330411978066,0.0278757009655,-0.37353515625,0.758056640625,-49.6362304688,-0.00018192655647,0.00737245487167,-0.419708087454,0.907629183718,0.103312179446,0.103312179446,0.45384478569,-0.054931640625,-0.778198242188,0.0732421875,-0.0186767578125,0.005126953125,1.00964355469,1,1,1,1,34,23,1,46.0021972656
1561680568607089974,102946,1561680568606865408,gps,38.9795623,117.7863221,4.70399999619,568109.044271,4314802.59442,0.0953691676259,0.0837432220578,0.0608100667596,1.15966796875,-1.34887695312,0.006103515625,0.0323869399726,0.0330411978066,0.0278757009655,-0.37353515625,0.7470703125,-49.6362304688,-0.000222169317413,0.00728543871531,-0.419708635386,0.907629624024,0.103312179446,0.103312179446,0.45384478569,-0.0823974609375,-0.164794921875,-0.10986328125,-0.0479736328125,0.0084228515625,0.996459960938,1,1,1,1,34,23,1,46.0021972656
1561680568627164115,102947,1561680568626950751,gps,38.9795625,117.7863217,4.70399999619,568109.009432,4314802.61632,0.0953691676259,0.0837432220578,0.0608100667596,1.15966796875,-1.3427734375,-0.0,0.0323869399726,0.0330411978066,0.0278757009655,-0.384521484375,0.736083984375,-49.6362304688,-0.00034943001675,0.00723866157245,-0.41970848739,0.907630026657,0.103312179446,0.103312179446,0.45384478569,0.0640869140625,-0.128173828125,-0.25634765625,-0.0615234375,0.0186767578125,0.96533203125,1,1,1,1,34,23,1,46.0021972656
1561680568647247500,102948,1561680568647089924,gps,38.9795627,117.7863214,4.70399999619,568108.983255,4314802.63829,0.0953691676259,0.0837432220578,0.0608100667596,1.15966796875,-1.33972167969,-0.0091552734375,0.0323869399726,0.0330411978066,0.0278757009655,-0.384521484375,0.736083984375,-49.6472167969,-0.000348736017159,0.00723869504037,-0.4197955034,0.907589783439,0.103312179446,0.103312179446,0.45384478569,0.03662109375,0.128173828125,-0.283813476562,-0.03955078125,0.0289306640625,0.957275390625,1,1,1,1,34,23,1,46.0021972656
1561680568667126420,102949,1561680568666949085,gps,38.9795629,117.7863211,4.70499992371,568108.957077,4314802.66026,0.0953691676259,0.0837432220578,0.0608100667596,1.15356445312,-1.33666992188,-0.006103515625,0.0323869399726,0.0330411978066,0.0278757009655,-0.37353515625,0.7470703125,-49.6472167969,-0.000221470833705,0.00728545998205,-0.419795651357,0.907589380791,0.103312179446,0.103312179446,0.45384478569,-0.0640869140625,0.155639648438,-0.228881835938,-0.0194091796875,0.0128173828125,0.970825195312,1,1,1,1,34,23,1,46.0021972656
1561680568687206196,102950,1561680568687014893,gps,38.9795631,117.7863208,4.70499992371,568108.9309,4314802.68223,0.0953691676259,0.0837432220578,0.0608100667596,1.14440917969,-1.33972167969,0.0091552734375,0.0323869399726,0.0330411978066,0.0278757009655,-0.384521484375,0.7470703125,-49.6472167969,-0.000308484874642,0.0073257073525,-0.419794950943,0.907589355387,0.103312179446,0.103312179446,0.45384478569,-0.018310546875,-0.0732421875,-0.146484375,0.005859375,-0.0018310546875,0.99609375,1,1,1,1,34,23,1,46.0021972656
1561680568706687743,102951,1561680568706500528,gps,38.9795633,117.7863205,4.70499992371,568108.904723,4314802.7042,0.0953691676259,0.0837432220578,0.0608100667596,1.123046875,-1.35498046875,0.0244140625,0.0323869399726,0.0330411978066,0.0278757009655,-0.37353515625,0.7470703125,-49.6472167969,-0.000221470833705,0.00728545998205,-0.419795651357,0.907589380791,0.103312179446,0.103312179446,0.45384478569,0.2197265625,-0.29296875,0.32958984375,-0.005859375,0.0113525390625,1.01477050781,1,1,1,1,34,23,1,46.0021972656
1561680568726776673,102952,1561680568726568967,gps,38.9795635,117.7863202,4.70599985123,568108.878546,4314802.72617,0.0953691676259,0.0837432220578,0.0608100667596,1.10473632812,-1.35498046875,0.054931640625,0.0323869399726,0.0330411978066,0.0278757009655,-0.37353515625,0.72509765625,-49.6362304688,-0.000302654832805,0.00711140620249,-0.419709719674,0.907630479608,0.103312179446,0.103312179446,0.45384478569,0.0091552734375,-0.8056640625,0.732421875,-0.00732421875,-0.0029296875,1.03454589844,1,1,1,1,34,23,1,46.0021972656
1561680568746955123,102953,1561680568746766865,gps,38.9795637,117.7863199,4.70699977875,568108.852369,4314802.74814,0.0953691676259,0.0837432220578,0.0608100667596,1.11694335938,-1.3427734375,0.0640869140625,0.0323869399726,0.0330411978066,0.0278757009655,-0.37353515625,0.714111328125,-49.6252441406,-0.000343571039878,0.00702435694045,-0.419623236081,0.907671129931,0.103312179446,0.103312179446,0.45384478569,-0.0274658203125,-1.04370117188,0.521850585938,-0.00439453125,0.0032958984375,1.02795410156,1,1,1,1,34,23,1,46.0021972656
1561680568767451587,102954,1561680568767267869,gps,38.9795639,117.7863195,4.70699977875,568108.81753,4314802.77003,0.0953691676259,0.0837432220578,0.0608100667596,1.12915039062,-1.33972167969,0.0518798828125,0.0323869399726,0.0330411978066,0.0278757009655,-0.37353515625,0.692138671875,-49.6252441406,-0.000424039851902,0.00685031632218,-0.419624297145,0.907671935559,0.103312179446,0.103312179446,0.45384478569,-0.0091552734375,-0.933837890625,0.3662109375,-0.028564453125,0.0106201171875,1.03674316406,1,1,1,1,34,23,1,46.0021972656
1561680568786496578,102955,1561680568786289622,gps,38.9795641,117.7863192,4.70800018311,568108.791353,4314802.792,0.0953691676259,0.0837432220578,0.0608100667596,1.12915039062,-1.3427734375,0.030517578125,0.0323869399726,0.0330411978066,0.0278757009655,-0.37353515625,0.670166015625,-49.6252441406,-0.000504508648336,0.00667627545204,-0.419625342781,0.907672707815,0.103312179446,0.103312179446,0.45384478569,0.0274658203125,-0.521850585938,0.540161132812,-0.064453125,0.0172119140625,1.03051757812,1,1,1,1,34,23,1,46.0021972656
1561680568807082063,102956,1561680568806901983,gps,38.9795643,117.7863189,4.70800018311,568108.765176,4314802.81397,0.0953691676259,0.0837432220578,0.0608100667596,1.14135742188,-1.33056640625,0.0213623046875,0.0323869399726,0.0330411978066,0.0278757009655,-0.37353515625,0.6591796875,-49.6142578125,-0.000545374774181,0.00658920266765,-0.419538835818,0.907713308382,0.103312179446,0.103312179446,0.45384478569,-0.0732421875,-0.302124023438,0.274658203125,-0.065185546875,0.013916015625,1.0341796875,1,1,1,1,34,23,1,46.0021972656
1561680568827431876,102957,1561680568827275043,gps,38.9795645,117.7863186,4.70800018311,568108.738999,4314802.83594,0.0953691676259,0.0837432220578,0.0608100667596,1.14440917969,-1.32751464844,-0.0,0.0323869399726,0.0330411978066,0.0278757009655,-0.37353515625,0.6591796875,-49.6142578125,-0.000545374774181,0.00658920266765,-0.419538835818,0.907713308382,0.103312179446,0.103312179446,0.45384478569,0.0823974609375,0.137329101562,0.192260742188,-0.0640869140625,0.017578125,0.994995117188,1,1,1,1,34,23,1,46.0021972656
1561680568846607697,102958,1561680568846418168,gps,38.9795647,117.7863183,4.70800018311,568108.712821,4314802.85791,0.0953691676259,0.0837432220578,0.0608100667596,1.15051269531,-1.32446289062,-0.0213623046875,0.0323869399726,0.0330411978066,0.0278757009655,-0.37353515625,0.670166015625,-49.6142578125,-0.000505148725908,0.00667622705219,-0.419538318822,0.90771293472,0.103312179446,0.103312179446,0.45384478569,-0.018310546875,0.62255859375,0.0732421875,-0.0399169921875,0.0029296875,0.9638671875,1,1,1,1,34,23,1,46.0021972656
1561680568866999363,102959,1561680568866862472,gps,38.9795649,117.786318,4.70800018311,568108.686644,4314802.87988,0.0953691676259,0.0837432220578,0.0608100667596,1.14440917969,-1.32751464844,-0.0152587890625,0.0323869399726,0.0330411978066,0.0278757009655,-0.37353515625,0.68115234375,-49.6032714844,-0.00046557108946,0.00676320677039,-0.41945077019,0.907752771224,0.103312179446,0.103312179446,0.45384478569,-0.2197265625,0.567626953125,0.137329101562,-0.0113525390625,-0.012451171875,0.9931640625,1,1,1,1,34,23,1,46.0021972656
1561680568887078605,102960,1561680568886919347,gps,38.9795651,117.7863177,4.70900011063,568108.660467,4314802.90185,0.0953691676259,0.0837432220578,0.0608100667596,1.12609863281,-1.32141113281,0.0213623046875,0.0323869399726,0.0330411978066,0.0278757009655,-0.37353515625,0.692138671875,-49.6032714844,-0.000425353375802,0.00685023488762,-0.419450245518,0.907752380824,0.103312179446,0.103312179446,0.45384478569,0.0,-0.128173828125,0.10986328125,0.00439453125,-0.006591796875,1.00817871094,1,1,1,1,34,23,1,46.0021972656
1561680568906540487,102961,1561680568906333199,gps,38.9795653,117.7863174,4.70900011063,568108.63429,4314802.92382,0.0953691676259,0.0837432220578,0.0608100667596,1.11389160156,-1.32446289062,0.048828125,0.0323869399726,0.0330411978066,0.0278757009655,-0.37353515625,0.68115234375,-49.5922851562,-0.000466219501647,0.00676316210323,-0.419363738556,0.907792981391,0.103312179446,0.103312179446,0.45384478569,-0.03662109375,-0.558471679688,0.357055664062,-0.003662109375,0.005126953125,1.01513671875,1,1,1,1,34,23,1,46.0021972656
1561680568926821169,102962,1561680568926616957,gps,38.9795655,117.7863171,4.71000003815,568108.608113,4314802.94579,0.0953691676259,0.0837432220578,0.0608100667596,1.11694335938,-1.32446289062,0.054931640625,0.0323869399726,0.0330411978066,0.0278757009655,-0.37353515625,0.670166015625,-49.5922851562,-0.000506428867118,0.00667613006841,-0.419364259335,0.907793363497,0.103312179446,0.103312179446,0.45384478569,-0.018310546875,-0.62255859375,0.274658203125,0.0018310546875,-0.0018310546875,1.03381347656,1,1,1,1,34,23,1,46.0021972656
1561680568946800540,102963,1561680568946671279,gps,38.9795657,117.7863168,4.71099996567,568108.581936,4314802.96776,0.0953691676259,0.0837432220578,0.0608100667596,1.123046875,-1.31530761719,0.06103515625,0.0323869399726,0.0330411978066,0.0278757009655,-0.37353515625,0.6591796875,-49.5812988281,-0.000547269947277,0.00658904553365,-0.419277740698,0.907833939181,0.103312179446,0.103312179446,0.45384478569,0.054931640625,-0.759887695312,0.091552734375,-0.0186767578125,0.0054931640625,1.03564453125,1,1,1,1,34,23,1,46.0021972656
1561680568966935798,102964,1561680568966755716,gps,38.9795659,117.7863164,4.71199989319,568108.547097,4314802.98966,0.0953691676259,0.0837432220578,0.0608100667596,1.11999511719,-1.33056640625,0.0396728515625,0.0323869399726,0.0330411978066,0.0278757009655,-0.37353515625,0.648193359375,-49.5922851562,-0.000586847583726,0.00650206581546,-0.41936528933,0.907794102677,0.103312179446,0.103312179446,0.45384478569,0.210571289062,-0.375366210938,0.228881835938,-0.0472412109375,0.006591796875,0.997924804688,1,1,1,1,34,23,1,46.0021972656
1561680568989511467,102965,1561680568986835562,gps,38.9795661,117.7863161,4.71199989319,568108.52092,4314803.01163,0.0953691676259,0.0837432220578,0.0608100667596,1.11999511719,-1.33056640625,0.018310546875,0.0323869399726,0.0330411978066,0.0278757009655,-0.37353515625,0.63720703125,-49.5922851562,-0.000627056934124,0.00641503359893,-0.419365798545,0.907794459751,0.103312179446,0.103312179446,0.45384478569,0.210571289062,-0.100708007812,0.210571289062,-0.056396484375,-0.008056640625,0.994262695312,1,1,1,1,34,23,1,46.0021972656
1561680569007015928,102966,1561680569006867733,gps,38.9795663,117.7863158,4.71199989319,568108.494743,4314803.0336,0.0953691676259,0.0837432220578,0.0608100667596,1.12609863281,-1.32751464844,-0.0,0.0323869399726,0.0330411978066,0.0278757009655,-0.37353515625,0.63720703125,-49.5922851562,-0.000627056934124,0.00641503359893,-0.419365798545,0.907794459751,0.103312179446,0.103312179446,0.45384478569,-0.0823974609375,0.238037109375,0.173950195312,-0.0523681640625,-0.0084228515625,0.989135742188,1,1,1,1,34,23,1,46.0021972656
1561680569026588939,102967,1561680569026344842,gps,38.9795665,117.7863155,4.71199989319,568108.468565,4314803.05557,0.0953691676259,0.0837432220578,0.0608100667596,1.12609863281,-1.33056640625,-0.018310546875,0.0323869399726,0.0330411978066,0.0278757009655,-0.362548828125,0.648193359375,-49.5812988281,-0.000500433432345,0.00646181169332,-0.419278875179,0.907834356799,0.103312179446,0.103312179446,0.45384478569,0.0457763671875,0.640869140625,0.164794921875,-0.0340576171875,-0.012451171875,0.95947265625,1,1,1,1,34,23,1,46.0021972656
1561680569046811219,102968,1561680569046629986,gps,38.9795667,117.7863152,4.71199989319,568108.442388,4314803.07754,0.0953691676259,0.0837432220578,0.0608100667596,1.13220214844,-1.32446289062,-0.0213623046875,0.0323869399726,0.0330411978066,0.0278757009655,-0.362548828125,0.670166015625,-49.5812988281,-0.000420031475555,0.00663588375346,-0.419277861943,0.907833609812,0.103312179446,0.103312179446,0.45384478569,-0.100708007812,0.796508789062,0.018310546875,-0.028564453125,0.00146484375,0.978149414062,1,1,1,1,34,23,1,46.0021972656
1561680569066981775,102969,1561680569066796830,gps,38.9795669,117.7863149,4.71199989319,568108.416211,4314803.09951,0.0953691676259,0.0837432220578,0.0608100667596,1.13525390625,-1.31530761719,-0.006103515625,0.0323869399726,0.0330411978066,0.0278757009655,-0.37353515625,0.68115234375,-49.5812988281,-0.000466867909549,0.00676311737392,-0.419276703066,0.907833183214,0.103312179446,0.103312179446,0.45384478569,-0.247192382812,0.62255859375,-0.091552734375,-0.0150146484375,0.0032958984375,1.00012207031,1,1,1,1,34,23,1,46.0021972656
