%time,field.header.seq,field.header.stamp,field.header.frame_id,field.latitude,field.longitude,field.altitude,field.utm_east,field.utm_north,field.latitude_std,field.longitude_std,field.altitude_std,field.north_velocity,field.east_velocity,field.up_velocity,field.north_velocity_std,field.east_velocity_std,field.up_velocity_std,field.roll,field.pitch,field.yaw,field.x,field.y,field.z,field.w,field.roll_std,field.pitch_std,field.yaw_std,field.roll_rate,field.pitch_rate,field.yaw_rate,field.ax,field.ay,field.az,field.init_position,field.init_velocity,field.init_pitchroll,field.init_yaw,field.gps_status,field.gps_satellitenum,field.wheelspeed_status,field.temperature
1561680830513850695,116041,1561680830513676511,gps,38.9794454,117.7866735,4.75199985504,568139.594019,4314789.88453,0.0403566099703,0.0428521223366,0.0555762052536,2.76489257812,-3.79943847656,0.0396728515625,0.0323869399726,0.0330411978066,0.0301973838359,-0.966796875,0.142822265625,-53.9538574219,-0.00695340674312,0.00493789646872,-0.453605813034,0.891161620412,0.175520405173,0.184519514441,0.227637678385,0.18310546875,-0.311279296875,2.36206054688,0.01171875,0.0721435546875,0.985473632812,1,1,1,1,50,13,1,46.0021972656
1561680830534253757,116042,1561680830534099179,gps,38.9794459,117.7866727,4.75199985504,568139.524245,4314789.93942,0.0403566099703,0.0428521223366,0.0555762052536,2.78930664062,-3.79943847656,0.01220703125,0.0323869399726,0.0330411978066,0.0301973838359,-0.966796875,0.142822265625,-53.8989257812,-0.00695577301858,0.00493456265389,-0.453178565681,0.891378962575,0.175520405173,0.184519514441,0.227637678385,-0.283813476562,0.173950195312,2.33459472656,-0.0076904296875,0.0120849609375,1.00744628906,1,1,1,1,50,13,1,46.0021972656
1561680830554376035,116043,1561680830554207792,gps,38.9794463,117.7866717,4.75199985504,568139.437243,4314789.98306,0.0403566099703,0.0428521223366,0.0555762052536,2.76489257812,-3.81164550781,0.0152587890625,0.0323869399726,0.0330411978066,0.0301973838359,-0.966796875,0.15380859375,-53.8659667969,-0.00691376681822,0.00501803326531,-0.452921389938,0.891509525304,0.175520405173,0.184519514441,0.227637678385,0.119018554688,0.146484375,2.54516601562,-0.032958984375,-0.024169921875,1.01733398438,1,1,1,1,50,13,1,46.0021972656
1561680830574158972,116044,1561680830573994442,gps,38.9794468,117.7866708,4.75299978256,568139.358808,4314790.03787,0.0403566099703,0.0428521223366,0.0555762052536,2.76794433594,-3.80554199219,0.0152587890625,0.0323869399726,0.0330411978066,0.0301973838359,-0.966796875,0.15380859375,-53.8220214844,-0.00691569070143,0.00501538150001,-0.45257946702,0.891683152921,0.175520405173,0.184519514441,0.227637678385,0.128173828125,0.146484375,2.39868164062,-0.008056640625,0.029296875,0.990234375,1,1,1,1,50,13,1,46.0021972656
1561680830593946393,116045,1561680830593816995,gps,38.9794473,117.7866699,4.75299978256,568139.280372,4314790.09269,0.0403566099703,0.0428521223366,0.0555762052536,2.783203125,-3.80249023438,0.006103515625,0.0323869399726,0.0330411978066,0.0301973838359,-0.966796875,0.15380859375,-53.7780761719,-0.00691761356756,0.00501272899711,-0.452237477542,0.891856649399,0.175520405173,0.184519514441,0.227637678385,-0.25634765625,0.25634765625,2.4169921875,0.0076904296875,0.0823974609375,0.98876953125,1,1,1,1,50,13,1,46.0021972656
1561680830614312557,116046,1561680830614064975,gps,38.9794478,117.7866691,4.75299978256,568139.210598,4314790.14757,0.0403566099703,0.0428521223366,0.0555762052536,2.80151367188,-3.79333496094,-0.0,0.0323869399726,0.0330411978066,0.0301973838359,-0.977783203125,0.164794921875,-53.7231445312,-0.00696222347111,0.00513825442037,-0.451808624814,0.892072918729,0.175520405173,0.184519514441,0.227637678385,-0.485229492188,0.347900390625,2.30712890625,-0.00439453125,0.063720703125,0.97412109375,1,1,1,1,50,13,1,46.0021972656
1561680830633966164,116047,1561680830633788231,gps,38.9794483,117.7866682,4.75299978256,568139.132162,4314790.20239,0.0395574979484,0.0415856540203,0.0566989332438,2.8076171875,-3.7841796875,0.0091552734375,0.0323869399726,0.0330411978066,0.0301973838359,-0.98876953125,0.17578125,-53.6791992188,-0.007006450533,0.00526440970965,-0.45146518902,0.892245694159,0.175520405173,0.184519514441,0.227637678385,-0.5126953125,0.247192382812,2.17895507812,-0.0029296875,0.022705078125,1.01000976562,1,1,1,1,50,13,1,46.0021972656
1561680830653936056,116048,1561680830653768625,gps,38.9794488,117.7866673,4.75400018692,568139.053726,4314790.2572,0.0395574979484,0.0415856540203,0.0566989332438,2.80456542969,-3.7841796875,0.0244140625,0.0354369617999,0.0376282595098,0.0320646837354,-0.999755859375,0.17578125,-53.6462402344,-0.00709351979804,0.00530565333969,-0.451208034796,0.892374832318,0.175520405173,0.184519514441,0.227637678385,-0.320434570312,-0.0457763671875,2.06909179688,0.016845703125,0.032958984375,0.993896484375,1,1,1,1,50,13,1,46.0021972656
1561680830674188968,116049,1561680830674051972,gps,38.9794493,117.7866664,4.75400018692,568138.97529,4314790.31201,0.0395574979484,0.0415856540203,0.0566989332438,2.80151367188,-3.79943847656,0.0152587890625,0.0354369617999,0.0376282595098,0.0320646837354,-0.999755859375,0.17578125,-53.6022949219,-0.00709555396894,0.00530293261884,-0.450865780163,0.892547802808,0.168638154864,0.179066136479,0.212247982621,-0.247192382812,0.100708007812,2.2705078125,0.0164794921875,0.0615234375,0.992065429688,1,1,1,1,50,13,1,46.0021972656
1561680830694063566,116050,1561680830693910970,gps,38.9794498,117.7866656,4.75400018692,568138.905516,4314790.3669,0.0395574979484,0.0415856540203,0.0566989332438,2.81372070312,-3.78723144531,0.018310546875,0.0354369617999,0.0376282595098,0.0320646837354,-1.0107421875,0.17578125,-53.5583496094,-0.00718317558318,0.00534340448935,-0.450522949,0.892719957457,0.168638154864,0.179066136479,0.212247982621,-0.494384765625,0.03662109375,2.13317871094,-0.0091552734375,0.0703125,0.995727539062,1,1,1,1,50,13,1,46.0021972656
1561680830713363899,116051,1561680830713204805,gps,38.9794503,117.7866647,4.75500011444,568138.82708,4314790.42171,0.0395574979484,0.0415856540203,0.0566989332438,2.81066894531,-3.78112792969,0.018310546875,0.0354369617999,0.0376282595098,0.0320646837354,-1.02172851562,0.17578125,-53.5144042969,-0.00727082920385,0.00538380987937,-0.450180047966,0.892891972216,0.168638154864,0.179066136479,0.212247982621,-0.457763671875,-0.03662109375,2.25219726562,-0.019775390625,0.05712890625,1.01550292969,1,1,1,1,50,13,1,46.0021972656
1561680830734038088,116052,1561680830733827111,gps,38.9794508,117.7866638,4.75500011444,568138.748644,4314790.47653,0.0395574979484,0.0415856540203,0.0566989332438,2.81066894531,-3.79028320312,0.018310546875,0.0354369617999,0.0376282595098,0.0320646837354,-1.03271484375,0.17578125,-53.4704589844,-0.00735851479205,0.00542414876996,-0.449837077122,0.893063847055,0.168638154864,0.179066136479,0.212247982621,0.018310546875,-0.100708007812,2.26135253906,-0.0010986328125,0.0494384765625,0.97998046875,1,1,1,1,50,13,1,46.0021972656
1561680830753984215,116053,1561680830753712934,gps,38.9794513,117.7866629,4.75600004196,568138.670208,4314790.53134,0.0395574979484,0.0415856540203,0.0566989332438,2.81066894531,-3.79638671875,0.006103515625,0.0354369617999,0.0376282595098,0.0320646837354,-1.03271484375,0.17578125,-53.4375,-0.00736007458891,0.00542203207932,-0.449580194247,0.893193192882,0.168638154864,0.179066136479,0.212247982621,0.375366210938,0.10986328125,2.25219726562,0.0120849609375,0.073974609375,0.961303710938,1,1,1,1,50,13,1,46.0021972656
1561680830773513834,116054,1561680830773324072,gps,38.9794518,117.786662,4.75600004196,568138.591772,4314790.58615,0.0395574979484,0.0415856540203,0.0566989332438,2.81677246094,-3.79028320312,0.0091552734375,0.0354369617999,0.0376282595098,0.0320646837354,-1.02172851562,0.186767578125,-53.3935546875,-0.00723343044491,0.00546178819717,-0.44923731156,0.893366489329,0.168638154864,0.179066136479,0.212247982621,0.29296875,-0.03662109375,2.38952636719,0.010986328125,0.0684814453125,0.962768554688,1,1,1,1,50,13,1,46.0021972656
1561680830794323888,116055,1561680830794182652,gps,38.9794523,117.7866611,4.75699996948,568138.513336,4314790.64097,0.0395574979484,0.0415856540203,0.0566989332438,2.8076171875,-3.78723144531,0.0213623046875,0.0354369617999,0.0376282595098,0.0320646837354,-1.0107421875,0.17578125,-53.349609375,-0.00719289721737,0.00533031074291,-0.448896021804,0.893539149465,0.168638154864,0.179066136479,0.212247982621,0.732421875,-0.302124023438,2.45361328125,-0.00732421875,0.0380859375,1.00341796875,1,1,1,1,50,13,1,46.0021972656
1561680830814051433,116056,1561680830813887736,gps,38.9794528,117.7866602,4.75699996948,568138.4349,4314790.69578,0.0395574979484,0.0415856540203,0.0566989332438,2.80456542969,-3.79028320312,0.018310546875,0.0354369617999,0.0376282595098,0.0320646837354,-0.999755859375,0.17578125,-53.2946777344,-0.00710976392963,0.00528386575824,-0.448468143923,0.893754919374,0.168638154864,0.179066136479,0.212247982621,0.98876953125,-0.247192382812,2.5634765625,-0.0069580078125,0.0260009765625,1.01403808594,1,1,1,1,50,13,1,46.0021972656
1561680830834392389,116057,1561680830834261285,gps,38.9794533,117.7866593,4.75699996948,568138.356464,4314790.75059,0.0395574979484,0.0415856540203,0.0566989332438,2.80456542969,-3.80249023438,0.0244140625,0.0354369617999,0.0376282595098,0.0320646837354,-0.977783203125,0.164794921875,-53.2397460938,-0.0069838369143,0.00510883901729,-0.44804145347,0.89397090655,0.168638154864,0.179066136479,0.212247982621,1.08032226562,-0.393676757812,2.84729003906,0.021240234375,0.0377197265625,0.969360351562,1,1,1,1,50,13,1,46.0021972656
1561680830853827294,116058,1561680830853642062,gps,38.9794538,117.7866585,4.757999897,568138.28669,4314790.80548,0.0395574979484,0.0415856540203,0.0566989332438,2.81677246094,-3.80554199219,0.0091552734375,0.0354369617999,0.0376282595098,0.0320646837354,-0.94482421875,0.164794921875,-53.1848144531,-0.00672909793874,0.00497674734968,-0.447614310005,0.894187553428,0.168638154864,0.179066136479,0.212247982621,1.19018554688,-0.201416015625,2.82897949219,0.0,0.024169921875,1.00598144531,1,1,1,1,50,13,1,46.0021972656
1561680830873745155,116059,1561680830873606883,gps,38.9794543,117.7866576,4.757999897,568138.208254,4314790.86029,0.0395574979484,0.0415856540203,0.0566989332438,2.83203125,-3.79028320312,0.0152587890625,0.0354369617999,0.0376282595098,0.0320646837354,-0.9228515625,0.15380859375,-53.1298828125,-0.00660285873155,0.00480202532745,-0.447187308433,0.894403071319,0.168638154864,0.179066136479,0.212247982621,1.47399902344,-0.283813476562,2.45361328125,-0.003662109375,0.0384521484375,1.00671386719,1,1,1,1,50,13,1,46.0021972656
1561680830893796950,116060,1561680830893671254,gps,38.9794548,117.7866567,4.757999897,568138.129818,4314790.91511,0.0395574979484,0.0415856540203,0.0566989332438,2.84118652344,-3.78723144531,0.0152587890625,0.0354369617999,0.0376282595098,0.0320646837354,-0.90087890625,0.15380859375,-53.0749511719,-0.0064336190687,0.00471319461137,-0.446759419923,0.894618586355,0.168638154864,0.179066136479,0.212247982621,1.07116699219,-0.29296875,2.63671875,-0.018310546875,0.0439453125,1.01293945312,1,1,1,1,50,13,1,46.0021972656
1561680830914358370,116061,1561680830914172480,gps,38.9794553,117.7866558,4.757999897,568138.051383,4314790.96992,0.0395574979484,0.0415856540203,0.0566989332438,2.85339355469,-3.79333496094,0.0030517578125,0.0354369617999,0.0376282595098,0.0320646837354,-0.87890625,0.15380859375,-53.0310058594,-0.00626385216079,0.00462512766232,-0.446417200213,0.894791068186,0.168638154864,0.179066136479,0.212247982621,0.84228515625,0.0,2.72827148438,-0.01318359375,0.0380859375,0.988403320312,1,1,1,1,50,13,1,46.0021972656
1561680830933554531,116062,1561680830933348996,gps,38.9794558,117.786655,4.757999897,568137.981609,4314791.02481,0.0395574979484,0.0415856540203,0.0566989332438,2.8564453125,-3.79638671875,-0.006103515625,0.0354369617999,0.0376282595098,0.0320646837354,-0.867919921875,0.15380859375,-52.9760742188,-0.00618026102891,0.00457936582884,-0.445988654932,0.895005560572,0.168638154864,0.179066136479,0.212247982621,0.714111328125,0.283813476562,2.84729003906,-0.01318359375,0.032958984375,1.00451660156,1,1,1,1,50,13,1,46.0021972656
1561680830954633651,116063,1561680830954472444,gps,38.9794563,117.786654,4.75899982452,568137.894511,4314791.07955,0.0395574979484,0.0415856540203,0.0566989332438,2.86254882812,-3.79028320312,-0.0030517578125,0.0354369617999,0.0376282595098,0.0320646837354,-0.85693359375,0.15380859375,-52.9321289062,-0.00609619273607,0.00453426965394,-0.445645828577,0.89517711784,0.168638154864,0.179066136479,0.212247982621,0.247192382812,0.247192382812,2.9296875,-0.0018310546875,0.0069580078125,0.977416992188,1,1,1,1,50,13,1,46.0021972656
1561680830974388323,116064,1561680830974278989,gps,38.9794568,117.7866531,4.75899982452,568137.816075,4314791.13436,0.0395574979484,0.0415856540203,0.0566989332438,2.8564453125,-3.79638671875,0.0030517578125,0.0354369617999,0.0376282595098,0.0320646837354,-0.85693359375,0.164794921875,-52.8662109375,-0.00605612189989,0.00461660983004,-0.445130109358,0.895433524079,0.168638154864,0.179066136479,0.212247982621,0.119018554688,0.18310546875,3.10363769531,-0.006591796875,-0.0084228515625,1.02612304688,1,1,1,1,50,13,1,46.0021972656
1561680830994507316,116065,1561680830994254670,gps,38.9794573,117.7866523,4.75899982452,568137.746301,4314791.18925,0.0395574979484,0.0415856540203,0.0566989332438,2.86560058594,-3.79333496094,0.01220703125,0.0354369617999,0.0376282595098,0.0320646837354,-0.85693359375,0.17578125,-52.8112792969,-0.00601569723217,0.00469957430599,-0.44470010965,0.895646994002,0.168638154864,0.179066136479,0.212247982621,0.146484375,0.146484375,2.92053222656,-0.0098876953125,0.04248046875,1.00085449219,1,1,1,1,50,13,1,46.0021972656
1561680831013888025,116066,1561680831013722527,gps,38.9794578,117.7866514,4.76000022888,568137.667865,4314791.24406,0.0395574979484,0.0415856540203,0.0566989332438,2.89611816406,-3.77502441406,0.006103515625,0.0354369617999,0.0376282595098,0.0320646837354,-0.85693359375,0.17578125,-52.7563476562,-0.00601794937111,0.00469669002739,-0.444270713171,0.895860066532,0.168638154864,0.179066136479,0.212247982621,0.155639648438,0.347900390625,2.37121582031,0.0084228515625,0.069580078125,1.00415039062,1,1,1,1,50,13,1,46.0021972656
1561680831034494758,116067,1561680831034282652,gps,38.9794584,117.7866505,4.76000022888,568137.589333,4314791.30997,0.0395574979484,0.0415856540203,0.0566989332438,2.89916992188,-3.759765625,0.030517578125,0.0354369617999,0.0376282595098,0.0320646837354,-0.85693359375,0.17578125,-52.7124023438,-0.00601975008661,0.0046943818274,-0.443927122478,0.896030376336,0.168638154864,0.179066136479,0.212247982621,-0.0274658203125,-0.137329101562,2.2705078125,0.049072265625,0.05712890625,0.987670898438,1,1,1,1,50,13,1,46.0021972656
1561680831054051879,116068,1561680831053870878,gps,38.9794589,117.7866496,4.76000022888,568137.510897,4314791.36478,0.0395574979484,0.0415856540203,0.0566989332438,2.91137695312,-3.76586914062,0.0335693359375,0.0354369617999,0.0376282595098,0.0320646837354,-0.85693359375,0.17578125,-52.6574707031,-0.00602199973598,0.00469149560658,-0.443497542306,0.896243078275,0.168638154864,0.179066136479,0.212247982621,0.0091552734375,-0.29296875,2.06909179688,0.0234375,0.0369873046875,1.02648925781,1,1,1,1,50,13,1,46.0021972656
1561680831074345688,116069,1561680831074223887,gps,38.9794594,117.7866488,4.7610001564,568137.441123,4314791.41967,0.0395574979484,0.0415856540203,0.0566989332438,2.89306640625,-3.77807617188,0.0518798828125,0.0354369617999,0.0376282595098,0.0320646837354,-0.85693359375,0.164794921875,-52.6135253906,-0.00606628724209,0.00460324427829,-0.443154510626,0.896412901521,0.168638154864,0.179066136479,0.212247982621,0.238037109375,-0.62255859375,2.29797363281,-0.0223388671875,-0.0069580078125,1.04626464844,1,1,1,1,50,13,1,46.0998535156
1561680831093540059,116070,1561680831093322022,gps,38.9794599,117.7866479,4.76200008392,568137.362687,4314791.47449,0.0395574979484,0.0415856540203,0.0566989332438,2.880859375,-3.78723144531,0.030517578125,0.0354369617999,0.0376282595098,0.0320646837354,-0.85693359375,0.164794921875,-52.5476074219,-0.00606893422137,0.00459975392883,-0.44263878227,0.896667674633,0.168638154864,0.179066136479,0.212247982621,0.357055664062,-0.228881835938,2.39868164062,-0.022705078125,0.0084228515625,1.0166015625,1,1,1,1,50,13,1,46.0998535156
1561680831113439463,116071,1561680831113273963,gps,38.9794605,117.786647,4.76200008392,568137.284156,4314791.5404,0.0395574979484,0.0415856540203,0.0566989332438,2.87475585938,-3.7841796875,0.018310546875,0.0354369617999,0.0376282595098,0.0320646837354,-0.845947265625,0.15380859375,-52.4926757812,-0.00602754929295,0.00446846142756,-0.44221002916,0.896880143393,0.168638154864,0.179066136479,0.212247982621,0.265502929688,-0.119018554688,2.7099609375,-0.0142822265625,0.0677490234375,0.968994140625,1,1,1,1,50,13,1,46.0998535156
1561680831134505302,116072,1561680831134360959,gps,38.979461,117.7866462,4.76200008392,568137.214382,4314791.59528,0.0395574979484,0.0415856540203,0.0566989332438,2.89306640625,-3.7841796875,-0.006103515625,0.0354369617999,0.0376282595098,0.0320646837354,-0.845947265625,0.15380859375,-52.4377441406,-0.00602969064219,0.00446557149401,-0.441780041834,0.897092022113,0.168638154864,0.179066136479,0.212247982621,0.0091552734375,0.302124023438,2.79235839844,-0.016845703125,0.04541015625,0.992065429688,1,1,1,1,50,13,1,46.0998535156
1561680831154933387,116073,1561680831154725215,gps,38.9794615,117.7866452,4.76200008392,568137.127284,4314791.65002,0.0395574979484,0.0415856540203,0.0566989332438,2.89916992188,-3.78112792969,-0.018310546875,0.0354369617999,0.0376282595098,0.0320646837354,-0.8349609375,0.164794921875,-52.3937988281,-0.00590305494413,0.00450695970726,-0.441435719106,0.897262139597,0.168638154864,0.179066136479,0.212247982621,0.137329101562,0.558471679688,2.75573730469,-0.03369140625,-0.00439453125,1.02319335938,1,1,1,1,50,13,1,46.0998535156
1561680831173645991,116074,1561680831173496229,gps,38.979462,117.7866443,4.76200008392,568137.048848,4314791.70484,0.0395574979484,0.0415856540203,0.0566989332438,2.88696289062,-3.77807617188,-0.0,0.0354369617999,0.0376282595098,0.0320646837354,-0.823974609375,0.17578125,-52.3388671875,-0.0057768878024,0.00454789191697,-0.441005297008,0.897474385293,0.168638154864,0.179066136479,0.212247982621,0.631713867188,0.357055664062,2.783203125,-0.0003662109375,0.022705078125,1.0048828125,1,1,1,1,50,13,1,46.0998535156
1561680831194363266,116075,1561680831194190996,gps,38.9794625,117.7866435,4.76200008392,568136.979074,4314791.75972,0.0395574979484,0.0415856540203,0.0566989332438,2.90222167969,-3.77197265625,-0.0,0.0354369617999,0.0376282595098,0.0320646837354,-0.81298828125,0.186767578125,-52.2729492188,-0.00565120108447,0.00458840438003,-0.440488714635,0.897728635363,0.168638154864,0.179066136479,0.212247982621,0.54931640625,0.430297851562,2.69165039062,0.01611328125,0.028564453125,0.989868164062,1,1,1,1,50,13,1,46.0998535156
1561680831213462286,116076,1561680831213267514,gps,38.979463,117.7866426,4.76300001144,568136.900638,4314791.81454,0.0395574979484,0.0415856540203,0.0566989332438,2.91748046875,-3.77807617188,-0.0030517578125,0.0354369617999,0.0376282595098,0.0320646837354,-0.802001953125,0.19775390625,-52.2180175781,-0.00552511896393,0.00462959271569,-0.440058085078,0.89794037758,0.168638154864,0.179066136479,0.212247982621,0.228881835938,0.576782226562,2.79235839844,0.0186767578125,0.0205078125,0.987670898438,1,1,1,1,50,13,1,46.0998535156
1561680831233969894,116077,1561680831233766994,gps,38.9794635,117.7866417,4.76300001144,568136.822202,4314791.86935,0.0395574979484,0.0415856540203,0.0566989332438,2.92358398438,-3.76892089844,0.018310546875,0.0354369617999,0.0376282595098,0.0320646837354,-0.81298828125,0.208740234375,-52.1630859375,-0.00557129589804,0.00475520042435,-0.439626458451,0.898150836865,0.168638154864,0.179066136479,0.212247982621,-0.320434570312,0.164794921875,2.8564453125,0.0113525390625,-0.006591796875,1.01733398438,1,1,1,1,50,13,1,46.0998535156
1561680831254376761,116078,1561680831254184574,gps,38.9794641,117.7866409,4.76300001144,568136.752332,4314791.93533,0.0395574979484,0.0415856540203,0.0566989332438,2.91137695312,-3.77807617188,0.030517578125,0.0354369617999,0.0376282595098,0.0320646837354,-0.81298828125,0.208740234375,-52.1081542969,-0.00557357475348,0.00475252917157,-0.439195862291,0.898361476955,0.168638154864,0.179066136479,0.212247982621,-0.283813476562,0.0,3.04870605469,0.005126953125,-0.024169921875,1.02355957031,1,1,1,1,50,13,1,46.0998535156
1561680831273793198,116079,1561680831273657284,gps,38.9794646,117.78664,4.76399993896,568136.673896,4314791.99015,0.0395574979484,0.0415856540203,0.0566989332438,2.92358398438,-3.76586914062,0.03662109375,0.0354369617999,0.0376282595098,0.0320646837354,-0.823974609375,0.208740234375,-52.0532226562,-0.00566200180535,0.00479192288815,-0.438764707802,0.8985713719,0.168638154864,0.179066136479,0.212247982621,-0.466918945312,-0.0640869140625,2.69165039062,0.0003662109375,-0.006591796875,1.00927734375,1,1,1,1,50,16,1,46.0998535156
1561680831293735513,116080,1561680831293569397,gps,38.9794651,117.7866391,4.76399993896,568136.59546,4314792.04496,0.0395574979484,0.0415856540203,0.0566989332438,2.94799804688,-3.76281738281,0.0213623046875,0.0354369617999,0.0376282595098,0.0320646837354,-0.8349609375,0.208740234375,-51.9982910156,-0.00575046783438,0.00483123286478,-0.438333448975,0.898781051657,0.168638154864,0.179066136479,0.212247982621,-0.595092773438,0.238037109375,2.33459472656,-0.018310546875,0.031494140625,1.0166015625,1,1,1,1,50,16,1,46.0998535156
1561680831314157749,116081,1561680831313984464,gps,38.9794656,117.7866383,4.76499986649,568136.525686,4314792.09985,0.0395574979484,0.0415856540203,0.0566989332438,2.978515625,-3.75061035156,0.0030517578125,0.0354369617999,0.0376282595098,0.0320646837354,-0.845947265625,0.2197265625,-51.9543457031,-0.00579651185897,0.00495720331374,-0.437987558783,0.898948677588,0.168638154864,0.179066136479,0.212247982621,-0.640869140625,0.62255859375,1.78527832031,-0.0146484375,0.0618896484375,1.0107421875,1,1,1,1,50,16,1,46.0998535156
1561680831333439595,116082,1561680831333273525,gps,38.9794662,117.7866374,4.76499986649,568136.447155,4314792.16576,0.0395574979484,0.0415856540203,0.0566989332438,2.99682617188,-3.74145507812,-0.0,0.0354369617999,0.0376282595098,0.0320646837354,-0.867919921875,0.2197265625,-51.8994140625,-0.00597129890395,0.0050383244081,-0.437555622308,0.899157403497,0.168638154864,0.179066136479,0.212247982621,-0.732421875,0.704956054688,1.50146484375,-0.0205078125,0.079833984375,0.97705078125,1,1,1,1,50,16,1,46.0998535156
1561680831354051295,116083,1561680831353855677,gps,38.9794667,117.7866365,4.76499986649,568136.368719,4314792.22057,0.0395574979484,0.0415856540203,0.0566989332438,3.00598144531,-3.73229980469,0.0152587890625,0.0354369617999,0.0376282595098,0.0320646837354,-0.87890625,0.230712890625,-51.8664550781,-0.00601703761696,0.00516474841331,-0.437295758723,0.899282792026,0.168638154864,0.179066136479,0.212247982621,-0.814819335938,0.32958984375,1.13525390625,0.02197265625,0.0311279296875,0.95068359375,1,1,1,1,50,16,1,46.0998535156
1561680831373705698,116084,1561680831373581905,gps,38.9794672,117.7866356,4.76599979401,568136.290283,4314792.27539,0.0395574979484,0.0415856540203,0.0566989332438,2.98461914062,-3.75061035156,0.006103515625,0.0354369617999,0.0376282595098,0.0320646837354,-0.90087890625,0.24169921875,-51.8225097656,-0.00614959037698,0.00533245697735,-0.436949093724,0.899449407657,0.168638154864,0.179066136479,0.212247982621,-0.384521484375,0.375366210938,1.30004882812,0.030029296875,0.02197265625,0.978149414062,1,1,1,1,50,16,1,46.0998535156
1561680831394661439,116085,1561680831394414680,gps,38.9794677,117.7866347,4.76599979401,568136.211847,4314792.3302,0.0395574979484,0.0415856540203,0.0566989332438,2.96936035156,-3.77197265625,0.0152587890625,0.0354369617999,0.0376282595098,0.0320646837354,-0.90087890625,0.24169921875,-51.7785644531,-0.00615163489636,0.00533009824692,-0.436604127074,0.899616909391,0.168638154864,0.179066136479,0.212247982621,0.0823974609375,0.18310546875,1.5380859375,0.0267333984375,0.043212890625,0.981811523438,1,1,1,1,50,16,1,46.0998535156
1561680831413927059,116086,1561680831413737660,gps,38.9794683,117.7866339,4.76700019836,568136.141977,4314792.39618,0.0376282595098,0.0387742072344,0.0561347566545,2.96325683594,-3.78112792969,0.0274658203125,0.0354369617999,0.0376282595098,0.0320646837354,-0.90087890625,0.24169921875,-51.7456054688,-0.0061531676922,0.00532832868465,-0.436345359945,0.899742448868,0.168638154864,0.179066136479,0.212247982621,-0.155639648438,-0.091552734375,1.86767578125,0.012451171875,0.0633544921875,0.971557617188,1,1,1,1,50,16,1,46.0998535156
1561680831434091292,116087,1561680831433946987,gps,38.9794688,117.786633,4.76700019836,568136.063541,4314792.451,0.0376282595098,0.0387742072344,0.0561347566545,2.94189453125,-3.78112792969,0.0457763671875,0.0354369617999,0.0372538492084,0.0323869399726,-0.90087890625,0.230712890625,-51.6906738281,-0.00619751678526,0.00523909802551,-0.435914765668,0.899951365192,0.168638154864,0.179066136479,0.212247982621,0.448608398438,-0.558471679688,2.24304199219,0.0,0.0662841796875,0.970092773438,1,1,1,1,50,16,1,46.0998535156
1561680831454444239,116088,1561680831454324667,gps,38.9794693,117.7866321,4.76800012589,568135.985105,4314792.50581,0.0376282595098,0.0387742072344,0.0561347566545,2.94799804688,-3.78112792969,0.030517578125,0.0354369617999,0.0372538492084,0.0323869399726,-0.889892578125,0.2197265625,-51.6357421875,-0.00615547988275,0.00510807450768,-0.435484559094,0.900160661456,0.162025749683,0.173773944378,0.193980038166,0.869750976562,-0.375366210938,2.23388671875,-0.005126953125,0.047607421875,1.0048828125,1,1,1,1,50,16,1,46.0998535156
1561680831474112298,116089,1561680831473922635,gps,38.9794699,117.7866312,4.76800012589,568135.906574,4314792.57172,0.0376282595098,0.0387742072344,0.0561347566545,2.94799804688,-3.7841796875,0.030517578125,0.0354369617999,0.0372538492084,0.0323869399726,-0.867919921875,0.208740234375,-51.5808105469,-0.00602699681859,0.00493538196337,-0.435054702653,0.900370325485,0.162025749683,0.173773944378,0.193980038166,0.979614257812,-0.421142578125,2.44445800781,0.0135498046875,0.00439453125,0.972290039062,1,1,1,1,50,16,1,46.0998535156
1561680831494141535,116090,1561680831493941957,gps,38.9794704,117.7866304,4.76800012589,568135.8368,4314792.62661,0.0376282595098,0.0387742072344,0.0561347566545,2.94799804688,-3.79638671875,0.0152587890625,0.0354369617999,0.0372538492084,0.0323869399726,-0.845947265625,0.19775390625,-51.5148925781,-0.00589880601763,0.00476224778781,-0.434538348185,0.900621423818,0.162025749683,0.173773944378,0.193980038166,1.318359375,-0.320434570312,2.61840820312,0.01318359375,0.005126953125,0.978881835938,1,1,1,1,50,16,1,46.0998535156
1561680831513550379,116091,1561680831513366954,gps,38.9794709,117.7866295,4.76800012589,568135.758364,4314792.68142,0.0376282595098,0.0387742072344,0.0561347566545,2.95715332031,-3.79333496094,0.0244140625,0.0354369617999,0.0372538492084,0.0323869399726,-0.81298828125,0.186767578125,-51.4599609375,-0.00568361176186,0.00454819588324,-0.434108601817,0.900831134176,0.162025749683,0.173773944378,0.193980038166,1.11694335938,-0.521850585938,2.75573730469,0.0106201171875,0.019775390625,0.985107421875,1,1,1,1,50,16,1,46.0998535156
1561680831533546133,116092,1561680831533422707,gps,38.9794715,117.7866286,4.76900005341,568135.679832,4314792.74733,0.0376282595098,0.0387742072344,0.0561347566545,2.98767089844,-3.77807617188,0.006103515625,0.0354369617999,0.0372538492084,0.0323869399726,-0.802001953125,0.186767578125,-51.3940429688,-0.00559983708184,0.00450335570079,-0.433590767148,0.901081243982,0.162025749683,0.173773944378,0.193980038166,0.439453125,-0.128173828125,2.7099609375,-0.0084228515625,0.0362548828125,1.0283203125,1,1,1,1,50,16,1,46.0998535156
1561680831553846968,116093,1561680831553652768,gps,38.979472,117.7866277,4.76999998093,568135.601396,4314792.80215,0.0376282595098,0.0387742072344,0.0561347566545,3.00598144531,-3.759765625,0.0244140625,0.0354369617999,0.0372538492084,0.0323869399726,-0.791015625,0.17578125,-51.3610839844,-0.0055562771557,0.00437379854441,-0.433332670733,0.901206299437,0.162025749683,0.173773944378,0.193980038166,0.430297851562,-0.40283203125,2.34375,0.003662109375,0.01171875,0.986938476562,1,1,1,1,50,16,1,46.0998535156
1561680831574185021,116094,1561680831574042676,gps,38.9794725,117.7866268,4.76999998093,568135.52296,4314792.85696,0.0376282595098,0.0387742072344,0.0561347566545,3.01513671875,-3.76281738281,0.01220703125,0.0354369617999,0.0372538492084,0.0323869399726,-0.780029296875,0.17578125,-51.3171386719,-0.00547153605453,0.00433015528557,-0.432987447728,0.901372942881,0.162025749683,0.173773944378,0.193980038166,0.411987304688,-0.274658203125,2.2705078125,-0.0010986328125,0.0003662109375,0.988037109375,1,1,1,1,50,16,1,46.0998535156
1561680831594524778,116095,1561680831594349025,gps,38.979473,117.7866259,4.77099990845,568135.444525,4314792.91177,0.0376282595098,0.0387742072344,0.0561347566545,3.03955078125,-3.75671386719,0.006103515625,0.0354369617999,0.0372538492084,0.0323869399726,-0.780029296875,0.164794921875,-51.2731933594,-0.00551467703344,0.00424162354399,-0.432642393709,0.901538771286,0.162025749683,0.173773944378,0.193980038166,0.247192382812,-0.0732421875,1.904296875,-0.0098876953125,0.037353515625,1.03161621094,1,1,1,1,50,16,1,46.0998535156
1561680831614623944,116096,1561680831614404404,gps,38.9794736,117.7866251,4.77099990845,568135.374655,4314792.97776,0.0376282595098,0.0387742072344,0.0561347566545,3.0517578125,-3.75061035156,0.0152587890625,0.0354369617999,0.0372538492084,0.0323869399726,-0.780029296875,0.164794921875,-51.2182617188,-0.00551670970256,0.00423897949155,-0.43221017428,0.901746063044,0.162025749683,0.173773944378,0.193980038166,0.18310546875,-0.192260742188,1.67541503906,-0.0208740234375,0.043212890625,1.02136230469,1,1,1,1,50,16,1,46.0998535156
1561680831634018995,116097,1561680831633708855,gps,38.9794741,117.7866242,4.77099990845,568135.296219,4314793.03257,0.0376282595098,0.0387742072344,0.0561347566545,3.04260253906,-3.74450683594,0.030517578125,0.0354369617999,0.0372538492084,0.0323869399726,-0.76904296875,0.164794921875,-51.1743164062,-0.00543186519411,0.004195459055,-0.431864731442,0.901912272175,0.162025749683,0.173773944378,0.193980038166,0.531005859375,-0.40283203125,1.50146484375,-0.0010986328125,0.034423828125,0.9931640625,1,1,1,1,50,16,1,46.0998535156
1561680831654428947,116098,1561680831654224114,gps,38.9794747,117.7866233,4.77199983597,568135.217687,4314793.09848,0.0376282595098,0.0387742072344,0.0561347566545,3.04870605469,-3.75366210938,0.01220703125,0.0354369617999,0.0372538492084,0.0323869399726,-0.758056640625,0.164794921875,-51.1303710938,-0.00534698808001,0.00415200428434,-0.431519220721,0.902078340682,0.162025749683,0.173773944378,0.193980038166,0.421142578125,-0.0732421875,1.45568847656,0.0281982421875,0.031494140625,0.983642578125,1,1,1,1,50,16,1,46.0998535156
1561680831673371934,116099,1561680831673248097,gps,38.9794752,117.7866225,4.77199983597,568135.147913,4314793.15337,0.0376282595098,0.0387742072344,0.0561347566545,3.05480957031,-3.76586914062,0.0152587890625,0.0354369617999,0.0372538492084,0.0323869399726,-0.758056640625,0.164794921875,-51.0974121094,-0.0053481820641,0.00415046620443,-0.431259745842,0.902202417529,0.162025749683,0.173773944378,0.193980038166,0.338745117188,-0.10986328125,1.47399902344,0.025634765625,0.01904296875,1.04846191406,1,1,1,1,50,16,1,46.0998535156
1561680831694339604,116100,1561680831694193799,gps,38.9794758,117.7866216,4.77199983597,568135.069381,4314793.21928,0.0376282595098,0.0387742072344,0.0561347566545,3.03955078125,-3.78112792969,0.0244140625,0.0354369617999,0.0372538492084,0.0323869399726,-0.7470703125,0.164794921875,-51.064453125,-0.00526286611929,0.00410760613214,-0.43100063108,0.902326928458,0.162025749683,0.173773944378,0.193980038166,1.01623535156,-0.173950195312,1.54724121094,-0.0084228515625,0.032958984375,1.03820800781,1,1,1,1,50,16,1,46.0998535156
1561680831714053202,116101,1561680831713878521,gps,38.9794763,117.7866207,4.77299976349,568134.990945,4314793.27409,0.0376282595098,0.0387742072344,0.0561347566545,3.0517578125,-3.77807617188,0.0274658203125,0.0354369617999,0.0372538492084,0.0323869399726,-0.72509765625,0.164794921875,-51.0424804688,-0.00509061868538,0.00402398668125,-0.430828383646,0.902410547909,0.162025749683,0.173773944378,0.193980038166,0.897216796875,-0.0732421875,1.38244628906,-0.0216064453125,0.0347900390625,1.0283203125,1,1,1,1,50,16,1,46.0998535156
1561680831733830348,116102,1561680831733707470,gps,38.9794769,117.7866199,4.77299976349,568134.921076,4314793.34008,0.0376282595098,0.0387742072344,0.0561347566545,3.05786132812,-3.77807617188,0.0091552734375,0.0354369617999,0.0372538492084,0.0323869399726,-0.714111328125,0.164794921875,-51.0095214844,-0.00500524643183,0.00398124205758,-0.430569196922,0.902534910063,0.162025749683,0.173773944378,0.193980038166,0.823974609375,0.320434570312,1.36413574219,-0.005126953125,0.00439453125,0.992797851562,1,1,1,1,50,16,1,46.0998535156
1561680831754216515,116103,1561680831753988059,gps,38.9794774,117.7866189,4.77400016785,568134.833978,4314793.39482,0.0376282595098,0.0387742072344,0.0561347566545,3.04565429688,-3.7841796875,0.0091552734375,0.0354369617999,0.0372538492084,0.0323869399726,-0.692138671875,0.17578125,-50.9985351562,-0.00479128759198,0.00398475084076,-0.430482836876,0.902577250145,0.162025749683,0.173773944378,0.193980038166,0.860595703125,0.338745117188,1.64794921875,-0.005126953125,0.0,1.02026367188,1,1,1,1,50,16,1,46.0998535156
1561680831773368869,116104,1561680831773239519,gps,38.9794779,117.786618,4.77500009537,568134.755542,4314793.44963,0.0376282595098,0.0387742072344,0.0561347566545,3.04260253906,-3.78112792969,0.0091552734375,0.0354369617999,0.0372538492084,0.0323869399726,-0.68115234375,0.186767578125,-50.9436035156,-0.00466541172556,0.00402777558935,-0.430049920001,0.902784070121,0.162025749683,0.173773944378,0.193980038166,0.613403320312,0.47607421875,1.84936523438,-0.0172119140625,0.008056640625,1.03344726562,1,1,1,1,50,16,1,46.0998535156
1561680831794149763,116105,1561680831793996839,gps,38.9794785,117.7866171,4.77500009537,568134.67701,4314793.51554,0.0376282595098,0.0387742072344,0.0561347566545,3.04870605469,-3.7841796875,0.01220703125,0.0354369617999,0.0372538492084,0.0323869399726,-0.670166015625,0.19775390625,-50.8996582031,-0.00453918781767,0.0040713571706,-0.429703483634,0.902949464797,0.162025749683,0.173773944378,0.193980038166,-0.091552734375,0.54931640625,2.11486816406,-0.013916015625,0.005126953125,0.992431640625,1,1,1,1,50,16,1,46.0998535156
1561680831814368647,116106,1561680831814234943,gps,38.979479,117.7866162,4.77600002289,568134.598575,4314793.57035,0.0376282595098,0.0387742072344,0.0561347566545,3.04870605469,-3.7841796875,0.0244140625,0.0354369617999,0.0372538492084,0.0323869399726,-0.670166015625,0.208740234375,-50.8447265625,-0.00449998140762,0.00415576884187,-0.429270008901,0.90315543469,0.162025749683,0.173773944378,0.193980038166,-0.155639648438,0.311279296875,2.23388671875,0.030029296875,-0.0087890625,0.963500976562,1,1,1,1,50,16,1,46.0998535156
1561680831833965668,116107,1561680831833758343,gps,38.9794796,117.7866153,4.77600002289,568134.520043,4314793.63626,0.0376282595098,0.0387742072344,0.0561347566545,3.06091308594,-3.7841796875,0.0244140625,0.0354369617999,0.0372538492084,0.0323869399726,-0.670166015625,0.2197265625,-50.7897949219,-0.0044608569374,0.00424021897931,-0.428836431498,0.903361188185,0.162025749683,0.173773944378,0.193980038166,-0.347900390625,0.210571289062,2.22473144531,0.0391845703125,-0.0091552734375,0.977783203125,1,1,1,1,50,16,1,46.0998535156
1561680831854312009,116108,1561680831854091517,gps,38.9794801,117.7866145,4.77600002289,568134.450269,4314793.69115,0.0376282595098,0.0387742072344,0.0561347566545,3.076171875,-3.76586914062,0.0396728515625,0.0354369617999,0.0372538492084,0.0323869399726,-0.68115234375,0.2197265625,-50.7458496094,-0.00454910712222,0.00427958889171,-0.428489556964,0.903525146477,0.162025749683,0.173773944378,0.193980038166,-0.531005859375,-0.091552734375,1.94091796875,0.0164794921875,0.02783203125,1.01586914062,1,1,1,1,50,16,1,46.0510253906
1561680831874592254,116109,1561680831874469112,gps,38.9794807,117.7866136,4.77699995041,568134.371737,4314793.75706,0.0376282595098,0.0387742072344,0.0561347566545,3.09143066406,-3.75061035156,0.0457763671875,0.0354369617999,0.0372538492084,0.0323869399726,-0.692138671875,0.2197265625,-50.7019042969,-0.00463738810487,0.0043188916953,-0.428142615809,0.903688963269,0.162025749683,0.173773944378,0.193980038166,-0.759887695312,-0.29296875,1.72119140625,0.0120849609375,0.03076171875,0.981811523438,1,1,1,1,50,16,1,46.0510253906
1561680831893742587,116110,1561680831893586659,gps,38.9794812,117.7866127,4.77799987793,568134.293301,4314793.81187,0.0376282595098,0.0387742072344,0.0561347566545,3.1005859375,-3.75671386719,0.0335693359375,0.0354369617999,0.0372538492084,0.0323869399726,-0.703125,0.2197265625,-50.6579589844,-0.00472569984605,0.00435812737191,-0.427795608094,0.903852638533,0.162025749683,0.173773944378,0.193980038166,-0.833129882812,-0.155639648438,1.6845703125,0.0164794921875,-0.01318359375,1.01733398438,1,1,1,1,50,16,1,46.0510253906
1561680831913655139,116111,1561680831913513077,gps,38.9794818,117.7866119,4.77899980545,568134.223431,4314793.87786,0.0376282595098,0.0387742072344,0.0561347566545,3.10363769531,-3.759765625,0.0213623046875,0.0354369617999,0.0372538492084,0.0323869399726,-0.714111328125,0.2197265625,-50.625,-0.00481362069883,0.00439775742367,-0.427535203378,0.90397518697,0.162025749683,0.173773944378,0.193980038166,-0.860595703125,-0.173950195312,1.50146484375,-0.005126953125,-0.0245361328125,0.972290039062,1,1,1,1,50,16,1,46.0510253906
1561680831933865359,116112,1561680831933725405,gps,38.9794823,117.786611,4.77899980545,568134.144996,4314793.93267,0.0376282595098,0.0387742072344,0.0561347566545,3.09753417969,-3.76892089844,0.01220703125,0.0354369617999,0.0372538492084,0.0323869399726,-0.736083984375,0.208740234375,-50.5920410156,-0.005029210468,0.00439162340777,-0.427274965621,0.904097076889,0.162025749683,0.173773944378,0.193980038166,-0.732421875,-0.0732421875,1.54724121094,-0.027099609375,0.0157470703125,0.964233398438,1,1,1,1,50,16,1,46.0510253906
1561680831954319111,116113,1561680831954159959,gps,38.9794828,117.7866101,4.78000020981,568134.06656,4314793.98749,0.0376282595098,0.0387742072344,0.0561347566545,3.09143066406,-3.759765625,-0.0030517578125,0.0354369617999,0.0372538492084,0.0323869399726,-0.7470703125,0.208740234375,-50.5700683594,-0.00511673951042,0.00443160682076,-0.427101176412,0.904178502811,0.162025749683,0.173773944378,0.193980038166,-0.787353515625,0.146484375,1.67541503906,-0.0113525390625,0.019775390625,0.9521484375,1,1,1,1,50,16,1,46.0510253906
1561680831973859166,116114,1561680831973729936,gps,38.9794834,117.7866092,4.78000020981,568133.988028,4314794.0534,0.0376282595098,0.0387742072344,0.0561347566545,3.09753417969,-3.75671386719,-0.0152587890625,0.0354369617999,0.0372538492084,0.0323869399726,-0.76904296875,0.2197265625,-50.537109375,-0.00525048649325,0.00459867831216,-0.426839581987,0.904300423421,0.162025749683,0.173773944378,0.193980038166,-0.714111328125,0.210571289062,1.50146484375,0.0150146484375,0.0135498046875,0.929443359375,1,1,1,1,50,16,1,46.0510253906
1561680831993529140,116115,1561680831993306271,gps,38.9794839,117.7866083,4.78000020981,568133.909592,4314794.10821,0.0376282595098,0.0387742072344,0.0561347566545,3.10974121094,-3.75671386719,-0.0152587890625,0.0354369617999,0.0372538492084,0.0323869399726,-0.780029296875,0.2197265625,-50.5041503906,-0.00533851941399,0.0046380657428,-0.426579025475,0.904422646544,0.162025749683,0.173773944378,0.193980038166,-0.759887695312,0.128173828125,1.26342773438,0.0260009765625,0.00732421875,0.96240234375,1,1,1,1,50,16,1,46.0510253906
1561680832014139684,116116,1561680832013983542,gps,38.9794845,117.7866074,4.78000020981,568133.831061,4314794.17412,0.0376282595098,0.0387742072344,0.0561347566545,3.10974121094,-3.76281738281,0.0030517578125,0.0354369617999,0.0372538492084,0.0323869399726,-0.791015625,0.2197265625,-50.4821777344,-0.00542612690483,0.00467792311247,-0.426405150233,0.904503909354,0.162025749683,0.173773944378,0.193980038166,-0.5859375,-0.2197265625,1.21765136719,0.013916015625,0.0322265625,0.99755859375,1,1,1,1,50,16,1,46.0510253906
1561680832034970211,116117,1561680832034744337,gps,38.9794851,117.7866066,4.78000020981,568133.761191,4314794.24011,0.0376282595098,0.0387742072344,0.0561347566545,3.11584472656,-3.759765625,0.006103515625,0.0354369617999,0.0372538492084,0.0323869399726,-0.802001953125,0.208740234375,-50.4602050781,-0.00555461653618,0.00463102207324,-0.426231938976,0.904585006545,0.162025749683,0.173773944378,0.193980038166,-0.942993164062,-0.119018554688,1.34582519531,0.005126953125,0.0450439453125,1.01733398438,1,1,1,1,50,16,1,46.0510253906
1561680832054522035,116118,1561680832054370227,gps,38.9794856,117.7866057,4.78100013733,568133.682755,4314794.29492,0.0376282595098,0.0387742072344,0.0561347566545,3.10974121094,-3.759765625,0.030517578125,0.0354369617999,0.0372538492084,0.0323869399726,-0.823974609375,0.208740234375,-50.4272460938,-0.0057294236867,0.00471110322834,-0.425970847833,0.904706480582,0.162025749683,0.173773944378,0.193980038166,-0.979614257812,-0.595092773438,1.46484375,0.0260009765625,0.0047607421875,0.973022460938,1,1,1,1,50,15,1,46.0510253906
1561680832074787555,116119,1561680832074664236,gps,38.9794862,117.7866048,4.78100013733,568133.604223,4314794.36083,0.0376282595098,0.0387742072344,0.0561347566545,3.1005859375,-3.76892089844,0.03662109375,0.0354369617999,0.0372538492084,0.0323869399726,-0.845947265625,0.186767578125,-50.3942871094,-0.00598591050893,0.00461758757208,-0.425711128126,0.904827542767,0.162025749683,0.173773944378,0.193980038166,-0.677490234375,-0.860595703125,1.5380859375,0.0296630859375,-0.0018310546875,0.984375,1,1,1,1,50,15,1,46.0510253906
1561680832094615775,116120,1561680832094391978,gps,38.9794867,117.786604,4.78200006485,568133.534449,4314794.41572,0.0376282595098,0.0387742072344,0.0561347566545,3.10974121094,-3.78112792969,0.0274658203125,0.0354369617999,0.0372538492084,0.0323869399726,-0.85693359375,0.17578125,-50.3723144531,-0.00611435281404,0.00457048154051,-0.425537890573,0.904908409219,0.162025749683,0.173773944378,0.193980038166,-0.640869140625,-0.750732421875,1.62048339844,0.01904296875,0.052734375,1.01586914062,1,1,1,1,50,15,1,46.0510253906
1561680832114354167,116121,1561680832114171366,gps,38.9794873,117.7866031,4.78200006485,568133.455917,4314794.48163,0.0376282595098,0.0387742072344,0.0561347566545,3.13720703125,-3.76586914062,0.030517578125,0.0354369617999,0.0372538492084,0.0323869399726,-0.867919921875,0.164794921875,-50.3393554688,-0.00624321076403,0.00452272793627,-0.425277879768,0.905029995211,0.162025749683,0.173773944378,0.193980038166,-0.76904296875,-0.814819335938,1.35498046875,0.0084228515625,0.08203125,1.00854492188,1,1,1,1,50,15,1,46.0510253906
1561680832134538560,116122,1561680832134388901,gps,38.9794879,117.7866022,4.78200006485,568133.377386,4314794.54754,0.0376282595098,0.0387742072344,0.0561347566545,3.14331054688,-3.77197265625,0.01220703125,0.0354369617999,0.0372538492084,0.0323869399726,-0.87890625,0.142822265625,-50.3063964844,-0.00641279142213,0.00438812115059,-0.425018561399,0.905151281812,0.162025749683,0.173773944378,0.193980038166,-0.247192382812,-0.558471679688,1.26342773438,0.0,0.04248046875,0.99169921875,1,1,1,1,50,15,1,46.0510253906
1561680832155085418,116123,1561680832154757411,gps,38.9794884,117.7866013,4.78299999237,568133.29895,4314794.60235,0.0376282595098,0.0387742072344,0.0561347566545,3.13415527344,-3.77502441406,0.006103515625,0.0354369617999,0.0372538492084,0.0323869399726,-0.87890625,0.1318359375,-50.3063964844,-0.006453541196,0.00430134161737,-0.42501927584,0.905151073264,0.162025749683,0.173773944378,0.193980038166,0.2197265625,-0.485229492188,1.26342773438,-0.0325927734375,0.041748046875,1.01440429688,1,1,1,1,50,15,1,46.0510253906
1561680832174147227,116124,1561680832173980155,gps,38.9794889,117.7866004,4.78299999237,568133.220514,4314794.65716,0.0376282595098,0.0387742072344,0.0561347566545,3.12194824219,-3.78112792969,0.006103515625,0.0354369617999,0.0372538492084,0.0323869399726,-0.867919921875,0.120849609375,-50.2734375,-0.00640871084243,0.00417197063468,-0.424760029978,0.905273682385,0.162025749683,0.173773944378,0.193980038166,0.5126953125,-0.439453125,1.48315429688,-0.024169921875,0.041015625,1.02319335938,1,1,1,1,50,15,1,46.0510253906
1561680832193919539,116125,1561680832193728159,gps,38.9794895,117.7865995,4.78299999237,568133.141982,4314794.72307,0.036516174674,0.036516174674,0.0566989332438,3.11584472656,-3.7841796875,-0.0,0.0354369617999,0.0372538492084,0.0323869399726,-0.85693359375,0.120849609375,-50.2404785156,-0.00632310675943,0.00412942876776,-0.424500034185,0.905396425394,0.162025749683,0.173773944378,0.193980038166,0.732421875,-0.192260742188,1.65710449219,-0.012451171875,0.0362548828125,1.01257324219,1,1,1,1,50,15,1,46.0510253906
1561680832214395286,116126,1561680832214142630,gps,38.97949,117.7865986,4.78299999237,568133.063547,4314794.77789,0.036516174674,0.036516174674,0.0566989332438,3.13110351562,-3.79943847656,-0.0274658203125,0.0350843556225,0.035793107003,0.0327124334872,-0.845947265625,0.120849609375,-50.2075195312,-0.00623747868374,0.00408693645452,-0.424239999025,0.905519085408,0.162025749683,0.173773944378,0.193980038166,0.933837890625,0.393676757812,1.72119140625,0.005859375,0.03955078125,0.988037109375,1,1,1,1,50,15,1,46.0510253906
1561680832234784632,116127,1561680832234479209,gps,38.9794906,117.7865978,4.78299999237,568132.993677,4314794.84387,0.036516174674,0.036516174674,0.0566989332438,3.14025878906,-3.79638671875,-0.01220703125,0.0350843556225,0.035793107003,0.0327124334872,-0.823974609375,0.1318359375,-50.1745605469,-0.00602434935466,0.00409067184897,-0.423979641176,0.905642444614,0.152590110898,0.166960179806,0.168638154864,1.14440917969,0.384521484375,1.65710449219,0.0047607421875,0.060791015625,0.995361328125,1,1,1,1,50,15,1,46.0510253906
1561680832254159405,116128,1561680832253892810,gps,38.9794912,117.7865969,4.78299999237,568132.915145,4314794.90978,0.036516174674,0.036516174674,0.0566989332438,3.15551757812,-3.7841796875,0.01220703125,0.0350843556225,0.035793107003,0.0327124334872,-0.802001953125,0.1318359375,-50.1525878906,-0.00585146316154,0.00400825276595,-0.423806754983,0.905724863697,0.152590110898,0.166960179806,0.168638154864,1.40075683594,-0.0823974609375,1.37329101562,0.0076904296875,0.0538330078125,1.00451660156,1,1,1,1,50,15,1,46.0510253906
1561680832274362330,116129,1561680832274201779,gps,38.9794918,117.786596,4.78299999237,568132.836613,4314794.97569,0.036516174674,0.036516174674,0.0566989332438,3.15856933594,-3.76892089844,0.042724609375,0.0350843556225,0.035793107003,0.0327124334872,-0.76904296875,0.120849609375,-50.1306152344,-0.00563231890529,0.00379844196504,-0.423634839246,0.905807579897,0.152590110898,0.166960179806,0.168638154864,1.70288085938,-0.576782226562,1.16271972656,0.031494140625,0.050537109375,1.02465820312,1,1,1,1,50,15,1,46.0510253906
1561680832294045791,116130,1561680832293886448,gps,38.9794923,117.7865952,4.78299999237,568132.766839,4314795.03058,0.036516174674,0.036516174674,0.0566989332438,3.15856933594,-3.77807617188,0.03662109375,0.0350843556225,0.035793107003,0.0327124334872,-0.736083984375,0.098876953125,-50.09765625,-0.0054540297431,0.00350134111671,-0.423376560299,0.905930616747,0.152590110898,0.166960179806,0.168638154864,1.67541503906,-0.5126953125,1.33666992188,0.015380859375,0.032958984375,1.04919433594,1,1,1,1,50,15,1,46.0510253906
1561680832314069955,116131,1561680832313908128,gps,38.9794929,117.7865943,4.78299999237,568132.688308,4314795.09649,0.036516174674,0.036516174674,0.0566989332438,3.14636230469,-3.80859375,0.0274658203125,0.0350843556225,0.035793107003,0.0327124334872,-0.703125,0.087890625,-50.0646972656,-0.00523500303938,0.00329120851033,-0.423117532941,0.906053704814,0.152590110898,0.166960179806,0.168638154864,1.84936523438,-0.265502929688,1.8310546875,-0.00146484375,-0.0146484375,1.0546875,1,1,1,1,50,15,1,46.0510253906
1561680832333831240,116132,1561680832333630155,gps,38.9794935,117.7865934,4.78299999237,568132.609776,4314795.1624,0.036516174674,0.036516174674,0.0566989332438,3.13720703125,-3.81774902344,0.0244140625,0.0350843556225,0.035793107003,0.0327124334872,-0.6591796875,0.076904296875,-50.0207519531,-0.00492926842631,0.00304018795013,-0.422771793832,0.906217672477,0.152590110898,0.166960179806,0.168638154864,2.05993652344,-0.146484375,1.95922851562,-0.0245361328125,-0.009521484375,1.03637695312,1,1,1,1,50,15,1,46.0510253906
1561680832354865590,116133,1561680832354580396,gps,38.979494,117.7865925,4.78399991989,568132.53134,4314795.21722,0.036516174674,0.036516174674,0.0566989332438,3.15246582031,-3.81164550781,0.0213623046875,0.0350843556225,0.035793107003,0.0327124334872,-0.626220703125,0.076904296875,-49.9877929688,-0.00466945988812,0.00291724669589,-0.422511985293,0.906340613732,0.152590110898,0.166960179806,0.168638154864,1.81274414062,-0.0457763671875,1.92260742188,-0.022705078125,0.013916015625,1.01550292969,1,1,1,1,50,15,1,46.0510253906
1561680832374759653,116134,1561680832374597279,gps,38.9794946,117.7865916,4.78399991989,568132.452809,4314795.28313,0.036516174674,0.036516174674,0.0566989332438,3.173828125,-3.80249023438,0.01220703125,0.0350843556225,0.035793107003,0.0327124334872,-0.59326171875,0.076904296875,-49.9548339844,-0.00440958067184,0.00279445491498,-0.422252106077,0.906463405513,0.152590110898,0.166960179806,0.168638154864,1.49230957031,0.091552734375,1.80358886719,-0.017578125,0.01171875,1.01184082031,1,1,1,1,50,15,1,46.0510253906
1561680832394711789,116135,1561680832394563284,gps,38.9794951,117.7865907,4.78399991989,568132.374373,4314795.33794,0.036516174674,0.036516174674,0.0566989332438,3.19519042969,-3.80249023438,-0.01220703125,0.0350843556225,0.035793107003,0.0327124334872,-0.560302734375,0.076904296875,-49.921875,-0.00414963086347,0.00267181264803,-0.421992156269,0.90658604778,0.152590110898,0.166960179806,0.168638154864,1.33666992188,0.631713867188,1.56555175781,-0.010986328125,-0.0238037109375,1.00927734375,1,1,1,1,50,15,1,46.0510253906
1561680832414963550,116136,1561680832414745709,gps,38.9794957,117.7865898,4.78299999237,568132.295841,4314795.40385,0.036516174674,0.036516174674,0.0566989332438,3.20434570312,-3.80554199219,-0.0152587890625,0.0350843556225,0.035793107003,0.0327124334872,-0.538330078125,0.087890625,-49.8889160156,-0.00393610651874,0.00267668227541,-0.421731452148,0.906708290856,0.152590110898,0.166960179806,0.168638154864,1.28173828125,0.686645507812,1.38244628906,0.005126953125,-0.0150146484375,0.984375,1,1,1,1,50,15,1,46.0510253906
1561680832434203869,116137,1561680832434063371,gps,38.9794963,117.786589,4.78299999237,568132.225971,4314795.46984,0.036516174674,0.036516174674,0.0566989332438,3.21960449219,-3.79333496094,-0.01220703125,0.0350843556225,0.035793107003,0.0327124334872,-0.516357421875,0.098876953125,-49.8559570312,-0.00372258510808,0.00268167499721,-0.421470726588,0.906830401789,0.152590110898,0.166960179806,0.168638154864,0.750732421875,0.704956054688,1.11694335938,0.015380859375,0.01171875,0.975952148438,1,1,1,1,50,15,1,46.0510253906
1561680832454102074,116138,1561680832453923239,gps,38.9794969,117.7865881,4.78299999237,568132.14744,4314795.53575,0.036516174674,0.036516174674,0.0566989332438,3.21960449219,-3.77807617188,0.018310546875,0.0350843556225,0.035793107003,0.0327124334872,-0.50537109375,0.10986328125,-49.833984375,-0.00359575817381,0.00272751854716,-0.421296671134,0.90691165284,0.152590110898,0.166960179806,0.168638154864,0.210571289062,0.100708007812,1.0986328125,0.01611328125,-0.0018310546875,0.989501953125,1,1,1,1,50,15,1,46.0510253906
1561680832474220771,116139,1561680832474101758,gps,38.9794974,117.7865872,4.78299999237,568132.069004,4314795.59056,0.036516174674,0.036516174674,0.0566989332438,3.22265625,-3.7841796875,0.018310546875,0.0350843556225,0.035793107003,0.0327124334872,-0.516357421875,0.10986328125,-49.8010253906,-0.00368350318065,0.00276685050716,-0.421035543181,0.90703244028,0.152590110898,0.166960179806,0.168638154864,-0.457763671875,0.155639648438,1.171875,0.0146484375,-0.0362548828125,1.01989746094,1,1,1,1,50,15,1,46.0510253906
1561680832494221358,116140,1561680832494117842,gps,38.979498,117.7865863,4.78399991989,568131.990472,4314795.65647,0.036516174674,0.036516174674,0.0566989332438,3.20739746094,-3.80249023438,0.018310546875,0.0350843556225,0.035793107003,0.0327124334872,-0.52734375,0.120849609375,-49.7790527344,-0.00373065165644,0.00289346172382,-0.42086090617,0.907112896929,0.152590110898,0.166960179806,0.168638154864,-0.668334960938,0.238037109375,1.38244628906,0.009521484375,-0.0567626953125,1.00268554688,1,1,1,1,50,15,1,46.0510253906
1561680832514320977,116141,1561680832514032275,gps,38.9794986,117.7865855,4.78399991989,568131.920602,4314795.72246,0.036516174674,0.036516174674,0.0566989332438,3.21350097656,-3.80554199219,0.0030517578125,0.0350843556225,0.035793107003,0.0327124334872,-0.54931640625,0.120849609375,-49.74609375,-0.00390544357709,0.00297303757203,-0.420599421346,0.907233175827,0.152590110898,0.166960179806,0.168638154864,-0.677490234375,0.47607421875,1.14440917969,-0.0194091796875,-0.0003662109375,1.00927734375,1,1,1,1,50,15,1,46.0510253906
1561680832534526285,116142,1561680832534387775,gps,38.9794992,117.7865846,4.78399991989,568131.842071,4314795.78837,0.036516174674,0.036516174674,0.0566989332438,3.23486328125,-3.79333496094,-0.0,0.0350843556225,0.035793107003,0.0327124334872,-0.560302734375,0.142822265625,-49.7351074219,-0.00391207827202,0.00318694579354,-0.420511209192,0.907273311612,0.152590110898,0.166960179806,0.168638154864,-1.11694335938,0.631713867188,0.906372070312,-0.017578125,0.050537109375,0.969360351562,1,1,1,1,50,15,1,46.0510253906
1561680832554575340,116143,1561680832554470266,gps,38.9794998,117.7865837,4.78299999237,568131.763539,4314795.85428,0.036516174674,0.036516174674,0.0566989332438,3.25317382812,-3.77197265625,0.0030517578125,0.0350843556225,0.035793107003,0.0327124334872,-0.582275390625,0.142822265625,-49.7131347656,-0.00408667215277,0.00326679419945,-0.420336615311,0.907353160018,0.152590110898,0.166960179806,0.168638154864,-1.34582519531,0.393676757812,0.640869140625,0.010986328125,0.034423828125,0.970458984375,1,1,1,1,50,15,1,46.0510253906
1561680832574335196,116144,1561680832573819485,gps,38.9795003,117.7865828,4.78399991989,568131.685103,4314795.90909,0.036516174674,0.036516174674,0.0566989332438,3.25012207031,-3.7841796875,-0.0030517578125,0.0350843556225,0.035793107003,0.0327124334872,-0.604248046875,0.142822265625,-49.6911621094,-0.00426129664217,0.00334657564357,-0.420161990822,0.907432941462,0.152590110898,0.166960179806,0.168638154864,-0.91552734375,0.421142578125,0.567626953125,0.0556640625,-0.0040283203125,0.9580078125,1,1,1,1,50,15,1,46.0510253906
1561680832594482352,116145,1561680832594196615,gps,38.9795009,117.786582,4.78399991989,568131.615234,4314795.97507,0.036516174674,0.036516174674,0.0566989332438,3.22875976562,-3.81469726562,0.0091552734375,0.0350843556225,0.035793107003,0.0327124334872,-0.626220703125,0.15380859375,-49.6801757812,-0.00439534787419,0.0035137176508,-0.420073812921,0.907472493469,0.152590110898,0.166960179806,0.168638154864,-0.3662109375,0.18310546875,0.823974609375,0.025634765625,-0.0091552734375,1.00927734375,1,1,1,1,50,15,1,46.0510253906
1561680832614431273,116146,1561680832614216043,gps,38.9795015,117.7865811,4.78399991989,568131.536702,4314796.04099,0.036516174674,0.036516174674,0.0566989332438,3.20739746094,-3.81469726562,0.03662109375,0.0350843556225,0.035793107003,0.0327124334872,-0.63720703125,0.15380859375,-49.658203125,-0.00448303207648,0.00355313216169,-0.419899460806,0.907552599297,0.152590110898,0.166960179806,0.168638154864,-0.69580078125,-0.29296875,1.13525390625,-0.0142822265625,0.0,1.02575683594,1,1,1,1,50,15,1,46.0510253906
1561680832634111127,116147,1561680832633982297,gps,38.9795021,117.7865802,4.78499984741,568131.45817,4314796.1069,0.036516174674,0.036516174674,0.0566989332438,3.1982421875,-3.80554199219,0.0518798828125,0.0350843556225,0.035793107003,0.0327124334872,-0.6591796875,0.142822265625,-49.6362304688,-0.00469799160991,0.00354573621909,-0.419725295854,0.907632102038,0.152590110898,0.166960179806,0.168638154864,-0.961303710938,-0.613403320312,1.3916015625,-0.0098876953125,0.0098876953125,1.00085449219,1,1,1,1,50,15,1,46.0510253906
1561680832654473391,116148,1561680832654243626,gps,38.9795027,117.7865793,4.78599977493,568131.379639,4314796.17281,0.036516174674,0.036516174674,0.0566989332438,3.19213867188,-3.81469726562,0.0274658203125,0.0350843556225,0.035793107003,0.0327124334872,-0.670166015625,0.1318359375,-49.6142578125,-0.00482592242696,0.00349803404271,-0.419551467241,0.907711981064,0.152590110898,0.166960179806,0.168638154864,-0.9521484375,-0.347900390625,1.63879394531,-0.0018310546875,-0.0208740234375,0.967895507812,1,1,1,1,50,15,1,46.0510253906
1561680832673901392,116149,1561680832673781834,gps,38.9795032,117.7865784,4.78499984741,568131.301203,4314796.22762,0.036516174674,0.036516174674,0.0566989332438,3.1982421875,-3.82690429688,-0.0091552734375,0.0350843556225,0.035793107003,0.0327124334872,-0.692138671875,0.142822265625,-49.5812988281,-0.00496080284226,0.00366408041303,-0.419289120431,0.907831811757,0.152590110898,0.166960179806,0.168638154864,-0.787353515625,0.25634765625,1.71203613281,0.0150146484375,-0.0150146484375,0.9609375,1,1,1,1,50,15,1,46.0510253906
1561680832694743343,116150,1561680832694568575,gps,38.9795038,117.7865776,4.78499984741,568131.231333,4314796.2936,0.036516174674,0.036516174674,0.0566989332438,3.23181152344,-3.80249023438,-0.01220703125,0.0350843556225,0.035793107003,0.0327124334872,-0.703125,0.142822265625,-49.5483398438,-0.00504890532536,0.00370282721705,-0.419027638158,0.907951890843,0.152590110898,0.166960179806,0.168638154864,-0.961303710938,0.283813476562,1.10778808594,-0.0025634765625,0.0362548828125,0.99462890625,1,1,1,1,50,15,1,46.0510253906
1561680832713932780,116151,1561680832713779687,gps,38.9795044,117.7865767,4.78499984741,568131.152801,4314796.35952,0.036516174674,0.036516174674,0.0566989332438,3.25622558594,-3.7841796875,0.0030517578125,0.0350843556225,0.035793107003,0.0327124334872,-0.72509765625,0.142822265625,-49.5263671875,-0.00522372814473,0.00378217312402,-0.418852815339,0.90803123675,0.152590110898,0.166960179806,0.168638154864,-1.01623535156,0.0274658203125,0.750732421875,-0.003662109375,0.0472412109375,1.0107421875,1,1,1,1,50,15,1,46.0510253906
1561680832734756566,116152,1561680832734621844,gps,38.979505,117.7865758,4.78599977493,568131.07427,4314796.42543,0.036516174674,0.036516174674,0.0566989332438,3.26843261719,-3.78112792969,0.018310546875,0.0350843556225,0.035793107003,0.0327124334872,-0.7470703125,0.142822265625,-49.5153808594,-0.00539821114313,0.00386196954619,-0.418765024185,0.908070371187,0.152590110898,0.166960179806,0.168638154864,-1.34582519531,-0.155639648438,0.750732421875,0.0120849609375,0.025634765625,0.979248046875,1,1,1,1,50,15,1,46.0510253906
